PCode,LAT,LONG,NAME,DISTRICT,COUNTRY
CG010100001,-4.764447,13.614718,Madimba,Bouenza,Congo
CG010100002,-4.764447,13.614718,Midimba,Bouenza,Congo
CG010100003,-4.70778,13.639169,Kitidi-Tounga,Bouenza,Congo
CG010100004,-4.70778,13.639169,Manzaou,Bouenza,Congo
CG010100005,-4.684443,13.633058,Minga,Bouenza,Congo
CG010100006,-4.621109,13.629719,Loukosi,Bouenza,Congo
CG010100007,-4.586113,13.675004,Hidi,Bouenza,Congo
CG010100008,-4.611108,13.593334,Bouadi,Bouenza,Congo
CG010100009,-4.560835,13.700277,Nzangi,Bouenza,Congo
CG010100010,-4.613055,13.531943,Zanghi,Bouenza,Congo
CG010100011,-4.613055,13.531943,Kinzoundou,Bouenza,Congo
CG010100012,-4.596385,13.539999,Kinkengue,Bouenza,Congo
CG010100013,-4.533329,13.714719,Kimbinda,Bouenza,Congo
CG010100014,-4.533891,13.705003,Kinanga-Makasa,Bouenza,Congo
CG010100015,-4.526671,13.713893,Kinzambi,Bouenza,Congo
CG010100016,-4.518889,13.716944,Kabadisou,Bouenza,Congo
CG010100017,-4.585281,13.501385,Kimbinda-Kikouangou,Bouenza,Congo
CG010100018,-4.522498,13.67667,Manzakala,Bouenza,Congo
CG010100019,-4.583611,13.485554,Kimbenza,Bouenza,Congo
CG010100020,-4.501947,13.716108,Mankala,Bouenza,Congo
CG010100021,-4.578886,13.475002,Knanga Ntaki,Bouenza,Congo
CG010100022,-4.533333,13.600002,Kingondala-Tsanga,Bouenza,Congo
CG010100023,-4.533058,13.579725,Kinanga,Bouenza,Congo
CG010100024,-4.533334,13.550003,Kingonda,Bouenza,Congo
CG010100025,-4.475837,13.706385,Boua-Boua,Bouenza,Congo
CG010100026,-4.473891,13.695557,Kingoye-Loukala,Bouenza,Congo
CG010100027,-4.476948,13.650835,Misasa,Bouenza,Congo
CG010100028,-4.524726,13.501943,Kimbaoka,Bouenza,Congo
CG010100029,-4.448055,13.728611,Kinanga-Boutandou,Bouenza,Congo
CG010100030,-4.456666,13.667778,Kingondala,Bouenza,Congo
CG010100031,-4.447218,13.695,Kinanga-Kenge,Bouenza,Congo
CG010100032,-4.450552,13.677782,Kikouangou,Bouenza,Congo
CG010100033,-4.459442,13.643054,Kisenga,Bouenza,Congo
CG010100034,-4.421666,13.719726,Kissenga,Bouenza,Congo
CG010100035,-4.443893,13.6175,Kongozoba,Bouenza,Congo
CG010100036,-4.505832,13.42444,Dziengele,Bouenza,Congo
CG010100037,-4.505832,13.42444,Kindoulou,Bouenza,Congo
CG010100038,-4.438887,13.624448,Boko Songho,Bouenza,Congo
CG010100039,-4.428337,13.656664,Boko Songo,Bouenza,Congo
CG010100040,-4.44361,13.60667,Soukou-Bouadi,Bouenza,Congo
CG010100041,-4.437225,13.621108,Mbanza-Kiniati,Bouenza,Congo
CG010100042,-4.437225,13.621108,Tanga,Bouenza,Congo
CG010100043,-4.438337,13.606112,Panga,Bouenza,Congo
CG010100044,-4.426948,13.638888,Nkenge-Mandou,Bouenza,Congo
CG010100045,-4.504165,13.385832,Mayanama,Bouenza,Congo
CG010100046,-4.498059,13.376943,Kinsaka,Bouenza,Congo
CG010100047,-4.345835,13.646387,Ngandoulou,Bouenza,Congo
CG010100048,-4.33694,13.634167,Moukousouna,Bouenza,Congo
CG010100049,-4.333335,13.641111,Nkoto,Bouenza,Congo
CG010100050,-4.331665,13.618058,Moazenge,Bouenza,Congo
CG010100051,-4.324168,13.608612,Dzanza,Bouenza,Congo
CG010200001,-3.978893,14.358612,Mikokoto,Bouenza,Congo
CG010200002,-3.947774,14.370274,Ngoukou,Bouenza,Congo
CG010200003,-3.973058,14.240834,Kinkoula,Bouenza,Congo
CG010200004,-3.905832,14.287496,Banbami,Bouenza,Congo
CG010200005,-3.888885,14.315836,Bansilisi,Bouenza,Congo
CG010200006,-3.93583,14.144718,Bantsielissi,Bouenza,Congo
CG010200007,-3.937781,14.133332,Kimbousi,Bouenza,Congo
CG010200008,-3.933886,14.128337,Matiti,Bouenza,Congo
CG010200009,-3.89778,14.245,Maleke,Bouenza,Congo
CG010200010,-3.887775,14.234723,Kambo,Bouenza,Congo
CG010200011,-3.887775,14.234723,Kintouari,Bouenza,Congo
CG010200012,-3.908057,14.125274,Kibiti,Bouenza,Congo
CG010200013,-3.882777,14.210275,Pandi,Bouenza,Congo
CG010200014,-3.870557,14.19222,Kintsoko,Bouenza,Congo
CG010200015,-3.888054,14.122503,Kingomo,Bouenza,Congo
CG010200016,-3.883614,14.124165,Kitiomo,Bouenza,Congo
CG010200017,-3.859167,14.172778,Kibamba,Bouenza,Congo
CG010200018,-3.863333,14.09778,Zabata,Bouenza,Congo
CG010200019,-3.843058,14.10361,Zabeta,Bouenza,Congo
CG010200020,-3.860834,14.022503,Banziele,Bouenza,Congo
CG010200021,-3.853334,14.005833,Mobili,Bouenza,Congo
CG010200022,-3.83528,14.062219,Wala,Bouenza,Congo
CG010200023,-3.816664,14.07917,Moutembesa,Bouenza,Congo
CG010200024,-3.818331,14.064444,Kinkouambala,Bouenza,Congo
CG010200025,-3.807224,14.099721,Kinzieri,Bouenza,Congo
CG010200026,-3.807224,14.099721,Mpini,Bouenza,Congo
CG010200027,-3.795836,14.100832,Kingoue,Bouenza,Congo
CG010200028,-3.808058,14.0425,Kinzele,Bouenza,Congo
CG010200029,-3.784721,14.111667,Mingali,Bouenza,Congo
CG010200030,-3.768885,14.123615,Kitzoa,Bouenza,Congo
CG010200031,-3.758332,14.127219,Mvouta,Bouenza,Congo
CG010200032,-3.755553,14.134443,Mayama,Bouenza,Congo
CG010200033,-3.748329,14.137782,Ngole,Bouenza,Congo
CG010200034,-3.731943,14.143057,Malima,Bouenza,Congo
CG010200035,-3.751941,14.06194,Nsiaki,Bouenza,Congo
CG010200036,-3.72278,14.143336,Kinbanba,Bouenza,Congo
CG010200037,-3.745553,14.043334,Gamobale,Bouenza,Congo
CG010200038,-3.709723,14.149165,Moukomo,Bouenza,Congo
CG010200039,-3.704167,14.165829,Nkode,Bouenza,Congo
CG010200040,-3.693053,14.189998,Kimpolo,Bouenza,Congo
CG010200041,-3.731669,14.03611,Nka,Bouenza,Congo
CG010200042,-3.687779,14.199169,Kinga,Bouenza,Congo
CG010200043,-3.691947,14.177501,Missa,Bouenza,Congo
CG010200044,-3.657502,14.296388,Kimpolo I,Bouenza,Congo
CG010200045,-3.673055,14.202226,Kimpolo II,Bouenza,Congo
CG010200046,-3.657775,14.253329,Kibaka,Bouenza,Congo
CG010200047,-3.654447,14.26528,Mpalou,Bouenza,Congo
CG010200048,-3.665831,14.216945,Bouende,Bouenza,Congo
CG010200049,-3.706948,14.036389,Mandou,Bouenza,Congo
CG010200050,-3.674168,14.029725,Soungou,Bouenza,Congo
CG010200051,-3.600002,14.090558,Moutimatitsi,Bouenza,Congo
CG010200052,-3.597496,14.090281,Miloundou,Bouenza,Congo
CG010200053,-3.580002,14.090281,Koulengene,Bouenza,Congo
CG010300001,-4.203059,13.034448,Loudima,Bouenza,Congo
CG010300002,-4.194442,13.037775,Loudima Gare,Bouenza,Congo
CG010300003,-4.193891,13.034444,Tzambisisi,Bouenza,Congo
CG010300004,-4.184442,13.041663,Yedike,Bouenza,Congo
CG010300005,-4.193892,12.988886,Ngounga,Bouenza,Congo
CG010300006,-4.172503,13.047222,Matchi-Koye,Bouenza,Congo
CG010300007,-4.187775,12.997502,Misenge,Bouenza,Congo
CG010300008,-4.078058,13.316113,Kanda,Bouenza,Congo
CG010300009,-4.169724,13.009723,Tsiboukou,Bouenza,Congo
CG010300010,-4.157503,13.046944,Tsimboukou,Bouenza,Congo
CG010300011,-4.157503,13.046944,Tsmiboukou,Bouenza,Congo
CG010300012,-4.144725,13.031667,Sanga,Bouenza,Congo
CG010300013,-4.136947,13.038053,Tsanga,Bouenza,Congo
CG010300014,-4.117219,13.093885,Tsanga-Mbouma,Bouenza,Congo
CG010300015,-4.125276,13.064447,Tsenga,Bouenza,Congo
CG010300016,-4.027218,13.377777,Kihidi,Bouenza,Congo
CG010300017,-4.05,13.299998,Loudima Poste,Bouenza,Congo
CG010300018,-4.179998,12.883332,Louidma,Bouenza,Congo
CG010300019,-4.179998,12.883332,Mont Belo,Bouenza,Congo
CG010300020,-4.179998,12.883332,Pasipe,Bouenza,Congo
CG010300021,-4.172225,12.874169,Moulanga,Bouenza,Congo
CG010300022,-4.172225,12.874169,Pindi,Bouenza,Congo
CG010300023,-4.172225,12.874169,Mbote,Bouenza,Congo
CG010300024,-4.172225,12.874169,Tikonzi,Bouenza,Congo
CG010300025,-4.105274,13.078885,Bouloumounoua,Bouenza,Congo
CG010300026,-4.167218,12.858056,Bamaganzo,Bouenza,Congo
CG010300027,-4.1025,13.049447,Bamanganzo,Bouenza,Congo
CG010300028,-4.1025,13.049447,Yedeke,Bouenza,Congo
CG010300029,-4.1025,13.049447,Youloukoyi,Bouenza,Congo
CG010300030,-4.142776,12.913614,Soulou,Bouenza,Congo
CG010300031,-4.092221,13.072496,Youloukoye,Bouenza,Congo
CG010300032,-4.084719,13.070002,Kimanza Ikongo,Bouenza,Congo
CG010300033,-4.081114,13.071109,Konde,Bouenza,Congo
CG010300034,-4.079444,13.06833,Mayekou,Bouenza,Congo
CG010300035,-4.150829,12.835554,Koumounene,Bouenza,Congo
CG010300036,-4.07278,13.075829,Soundi,Bouenza,Congo
CG010300037,-4.100557,12.98083,Kabangui,Bouenza,Congo
CG010300038,-4.100557,12.98083,Kibangi,Bouenza,Congo
CG010300039,-4.068054,13.073337,Kimanza Panga,Bouenza,Congo
CG010300040,-4.130278,12.874722,Kinkibi,Bouenza,Congo
CG010300041,-4.061944,13.085552,Kintibi,Bouenza,Congo
CG010300042,-4.059726,13.08806,Kimandza,Bouenza,Congo
CG010300043,-4.056942,13.096108,Kimanza,Bouenza,Congo
CG010300044,-4.100274,12.948056,Kihzambi,Bouenza,Congo
CG010300045,-4.054443,13.090837,Kimzambi,Bouenza,Congo
CG010300046,-4.106669,12.900553,Ngouele,Bouenza,Congo
CG010300047,-4.090832,12.946946,Mpaka,Bouenza,Congo
CG010300048,-4.040278,13.1,Paka,Bouenza,Congo
CG010300049,-4.087219,12.944443,Nzomosi,Bouenza,Congo
CG010300050,-4.087219,12.944443,Passibe Nzomossi,Bouenza,Congo
CG010300051,-4.08722,12.93444,Boukouni-Favre,Bouenza,Congo
CG010300052,-4.08722,12.93444,Mbomo III,Bouenza,Congo
CG010300053,-4.09694,12.893331,Loulou Moyeko,Bouenza,Congo
CG010300054,-4.09694,12.893331,loulou-Mayekou,Bouenza,Congo
CG010300055,-4.085274,12.929997,Youlou Mayekou,Bouenza,Congo
CG010300056,-4.085274,12.929997,Kingimbi II,Bouenza,Congo
CG010300057,-4.028886,13.100279,Kinguimbi,Bouenza,Congo
CG010300058,-4.093889,12.891664,Boma,Bouenza,Congo
CG010300059,-4.093889,12.891664,Bomo,Bouenza,Congo
CG010300060,-4.093889,12.891664,Bomo II,Bouenza,Congo
CG010300061,-4.022777,13.10583,M'Bomo,Bouenza,Congo
CG010300062,-4.077777,12.922498,Mbomo II,Bouenza,Congo
CG010300063,-4.077777,12.922498,Mouteki-Holo,Bouenza,Congo
CG010300064,-4.079166,12.914166,Moutelokiwolo,Bouenza,Congo
CG010300065,-4.079166,12.914166,Pika-Songho,Bouenza,Congo
CG010300066,-4.105829,12.830004,Pikasongo,Bouenza,Congo
CG010300067,-4.104168,12.824445,Kingibi,Bouenza,Congo
CG010300068,-4.076113,12.904721,Kingimbi,Bouenza,Congo
CG010300069,-4.076113,12.904721,Mbomo,Bouenza,Congo
CG010300070,-4.076113,12.904721,Bomo I,Bouenza,Congo
CG010300071,-4.072498,12.884445,Moukombitsi,Bouenza,Congo
CG010300072,-4.072498,12.884445,Moalou,Bouenza,Congo
CG010300073,-4.069997,12.882498,Moualo,Bouenza,Congo
CG010300074,-4.069997,12.882498,Moualou,Bouenza,Congo
CG010300075,-4.069997,12.882498,Mibimba,Bouenza,Congo
CG010300076,-4.069997,12.882498,Mbomo I,Bouenza,Congo
CG010300077,-4.069997,12.882498,Bembike,Bouenza,Congo
CG010300078,-4.066671,12.882777,Koutina-Nzambi,Bouenza,Congo
CG010300079,-4.066671,12.882777,Louboulou,Bouenza,Congo
CG010300080,-3.985829,13.124166,Mouindi,Bouenza,Congo
CG010300081,-3.985829,13.124166,Boungou,Bouenza,Congo
CG010300082,-4.055832,12.855833,Pangala,Bouenza,Congo
CG010300083,-4.055832,12.855833,Dihetso,Bouenza,Congo
CG010300084,-4.035278,12.833335,Sinda,Bouenza,Congo
CG010300085,-4.035278,12.833335,Moudilou,Bouenza,Congo
CG010300086,-4.023611,12.814722,Nitoumbi,Bouenza,Congo
CG010300087,-4.023611,12.814722,Ndollo,Bouenza,Congo
CG010300088,-4.023611,12.814722,Mari,Bouenza,Congo
CG010300089,-3.99778,12.786948,Kikondo,Bouenza,Congo
CG010300090,-3.991669,12.786946,Kibounda,Bouenza,Congo
CG010300091,-3.991669,12.786946,Dzassi,Bouenza,Congo
CG010300092,-3.991669,12.786946,Nzasi,Bouenza,Congo
CG010300093,-4.000003,12.749999,Nganda,Bouenza,Congo
CG010300094,-3.986113,12.784999,Kiele,Bouenza,Congo
CG010300095,-3.979725,12.779444,Nzou-Tari,Bouenza,Congo
CG010300096,-3.955282,12.766664,Kimvembe,Bouenza,Congo
CG010300097,-3.909163,12.911391,Kimboukou,Bouenza,Congo
CG010300098,-3.935553,12.823056,Tseke-Mpembe,Bouenza,Congo
CG010300099,-3.932782,12.821389,Ngiri,Bouenza,Congo
CG010300100,-3.936392,12.767777,Nguiri,Bouenza,Congo
CG010300101,-3.931387,12.765837,Kikanga,Bouenza,Congo
CG010300102,-3.924445,12.769447,Mayombo,Bouenza,Congo
CG010300103,-3.906947,12.770834,Seke-Pembe,Bouenza,Congo
CG010300104,-3.862777,12.780833,Moukasa,Bouenza,Congo
CG010300105,-3.841112,12.789448,Moudzanga,Bouenza,Congo
CG010300106,-3.824724,12.793612,Moudzanga II,Bouenza,Congo
CG010300107,-3.835834,12.724725,Nzaki,Bouenza,Congo
CG010300108,-3.80917,12.743334,Kiloungou,Bouenza,Congo
CG010300109,-3.718059,12.786943,Mousanda,Bouenza,Congo
CG010400001,-4.161663,13.777226,Moussanda,Bouenza,Congo
CG010400002,-4.106946,13.786111,Mabombo,Bouenza,Congo
CG010400003,-4.130553,13.673054,Mabombo IV,Bouenza,Congo
CG010400004,-4.126669,13.628059,Bouanza,Bouenza,Congo
CG010400005,-4.046664,13.787219,Bambouyi,Bouenza,Congo
CG010400006,-4.0775,13.673889,Kinfikou,Bouenza,Congo
CG010400007,-4.0775,13.673889,Kiniangi,Bouenza,Congo
CG010400008,-4.051391,13.755003,Kinkoumba-Tanga,Bouenza,Congo
CG010400009,-4.055829,13.718608,Kingouala-Nsouadi,Bouenza,Congo
CG010400010,-4.034998,13.776113,Kimpombo,Bouenza,Congo
CG010400011,-4.049163,13.69611,Mousasi,Bouenza,Congo
CG010400012,-4.023329,13.722775,Kimbenza-Ndiba,Bouenza,Congo
CG010400013,-4.075275,13.518888,Moupepe,Bouenza,Congo
CG010400014,-4.000002,13.769446,Kintamba,Bouenza,Congo
CG010400015,-4.000002,13.769446,Kintsimba,Bouenza,Congo
CG010400016,-4.037499,13.637226,Mbaamba,Bouenza,Congo
CG010400017,-4.0025,13.70556,Mboma,Bouenza,Congo
CG010400018,-4.013607,13.655837,Mienge-Mienge,Bouenza,Congo
CG010400019,-3.973332,13.76528,Bouansa,Bouenza,Congo
CG010400020,-4.006113,13.63056,Bouenza,Bouenza,Congo
CG010400021,-4.006113,13.63056,Le Briz,Bouenza,Congo
CG010400022,-4.036388,13.524443,Moukoukoulou,Bouenza,Congo
CG010400023,-3.959445,13.781385,Moukoulou,Bouenza,Congo
CG010400024,-3.959445,13.781385,Moukouloukoulou,Bouenza,Congo
CG010400025,-3.954166,13.759166,Kimbedi,Bouenza,Congo
CG010400026,-3.948059,13.72806,Kimbonga,Bouenza,Congo
CG010400027,-3.939169,13.717222,Kingoye,Bouenza,Congo
CG010400028,-3.939169,13.717222,Kimpanzou,Bouenza,Congo
CG010400029,-3.976112,13.576945,Aubeville,Bouenza,Congo
CG010400030,-3.976112,13.576945,Nsanga,Bouenza,Congo
CG010400031,-3.91417,13.746942,Kimdambou-Kaye,Bouenza,Congo
CG010400032,-3.923893,13.64278,Kiboungou,Bouenza,Congo
CG010400033,-3.951111,13.543885,Mansoumba,Bouenza,Congo
CG010400034,-3.905278,13.641666,Makondo-Mabenge,Bouenza,Congo
CG010400035,-3.903887,13.626387,Nkieni,Bouenza,Congo
CG010400036,-3.890832,13.623608,Nkoyi,Bouenza,Congo
CG010400037,-3.889447,13.59556,Kingoma,Bouenza,Congo
CG010500001,-4.268892,13.843892,Kingembo,Bouenza,Congo
CG010500002,-4.266664,13.835553,Kisende,Bouenza,Congo
CG010500003,-4.260552,13.837499,Kiniadi,Bouenza,Congo
CG010500004,-4.259169,13.831942,Madingo,Bouenza,Congo
CG010500005,-4.263056,13.789447,Madingou,Bouenza,Congo
CG010500006,-4.238056,13.830559,Soukou-Madingou,Bouenza,Congo
CG010500007,-4.310281,13.586663,Mbouki,Bouenza,Congo
CG010500008,-4.305834,13.587779,Mpasa,Bouenza,Congo
CG010500009,-4.295003,13.575556,Kikiemou,Bouenza,Congo
CG010500010,-4.229443,13.78222,Kanana,Bouenza,Congo
CG010500011,-4.263333,13.651668,Kinganga,Bouenza,Congo
CG010500012,-4.225003,13.754164,Kindamba,Bouenza,Congo
CG010500013,-4.218611,13.761669,Louanga,Bouenza,Congo
CG010500014,-4.218611,13.761669,Bisinza,Bouenza,Congo
CG010500015,-4.218611,13.761669,Bikoumbi,Bouenza,Congo
CG010500016,-4.218611,13.761669,Londa-Mataba,Bouenza,Congo
CG010500017,-4.218611,13.761669,Bikoka,Bouenza,Congo
CG010500018,-4.218611,13.761669,Kilemba,Bouenza,Congo
CG010500019,-4.201108,13.795002,Kingouala-Mboungou,Bouenza,Congo
CG010500020,-4.272218,13.549725,Bisai,Bouenza,Congo
CG010500021,-4.272218,13.549725,Kimoanda,Bouenza,Congo
CG010500022,-4.288888,13.494722,Kinsoundi,Bouenza,Congo
CG010500023,-4.295552,13.471385,Kimbobe,Bouenza,Congo
CG010500024,-4.194164,13.785004,Mfouati,Bouenza,Congo
CG010500025,-4.266666,13.549997,Mbanza,Bouenza,Congo
CG010500026,-4.265002,13.545279,Kimponzi,Bouenza,Congo
CG010500027,-4.233885,13.626386,Kimbenza-Panzou,Bouenza,Congo
CG010500028,-4.217776,13.667223,Moukanda,Bouenza,Congo
CG010500029,-4.21806,13.627504,Mpanga,Bouenza,Congo
CG010500030,-4.183059,13.734997,Bizoua,Bouenza,Congo
CG010500031,-4.169998,13.718056,Mayanga,Bouenza,Congo
CG010500032,-4.214445,13.559444,Hapilo,Bouenza,Congo
CG010500033,-4.200834,13.564171,Kinsimba,Bouenza,Congo
CG010500034,-4.169726,13.658333,Kindala,Bouenza,Congo
CG010500035,-4.175003,13.634444,Kinkoumba-Nkamba,Bouenza,Congo
CG010500036,-4.17361,13.61861,Kingouala-Mbouese,Bouenza,Congo
CG010500037,-4.20194,13.5125,Kinkoumba,Bouenza,Congo
CG010500038,-4.177775,13.565835,Ngoloubondo,Bouenza,Congo
CG010500039,-4.200834,13.473886,Mamouanda,Bouenza,Congo
CG010500040,-4.176393,13.508612,Nzombo,Bouenza,Congo
CG010500041,-4.167503,13.532778,Moukambou,Bouenza,Congo
CG010500042,-4.153607,13.549999,Loutete,Bouenza,Congo
CG010500043,-4.153607,13.549999,Kimbenza-Mouniere,Bouenza,Congo
CG010500044,-4.174721,13.476666,Bibondo,Bouenza,Congo
CG010500045,-4.169443,13.492223,Kamba-Ntete,Bouenza,Congo
CG010500046,-4.177497,13.444163,Kinsaba,Bouenza,Congo
CG010500047,-4.139165,13.555276,Kinzaba,Bouenza,Congo
CG010500048,-4.140834,13.528612,Ngouedi,Bouenza,Congo
CG010500049,-4.115552,13.536107,Ngoueri,Bouenza,Congo
CG010500050,-4.106388,13.524721,Kinnzoumba,Bouenza,Congo
CG010600051,-4.468613,13.860556,Mitoto,Bouenza,Congo
CG010600052,-4.462218,13.848886,Bousoumouna,Bouenza,Congo
CG010600053,-4.447777,13.851387,Kinntouari,Bouenza,Congo
CG010600054,-4.439447,13.84,Pandi Mamba,Bouenza,Congo
CG010600055,-4.421941,13.890276,Mayalama,Bouenza,Congo
CG010600056,-4.398331,13.945002,Makala,Bouenza,Congo
CG010600057,-4.413615,13.887504,Kimpongi,Bouenza,Congo
CG010600058,-4.430552,13.82583,Nzaou,Bouenza,Congo
CG010600059,-4.420555,13.84167,Pandi I,Bouenza,Congo
CG010600060,-4.385833,13.94028,Pandil,Bouenza,Congo
CG010600061,-4.412497,13.848333,Tsoumbou,Bouenza,Congo
CG010600062,-4.43389,13.765276,Hikolo,Bouenza,Congo
CG010600063,-4.372775,13.936108,Kimbimi,Bouenza,Congo
CG010600064,-4.367501,13.935836,Tsangou,Bouenza,Congo
CG010600065,-4.417499,13.775278,Mangandza,Bouenza,Congo
CG010600066,-4.363332,13.936112,Mangantza,Bouenza,Congo
CG010600067,-4.390559,13.811385,Kimfikou,Bouenza,Congo
CG010600068,-4.368889,13.876667,Matolo,Bouenza,Congo
CG010600069,-4.343888,13.951386,Mouionzi,Bouenza,Congo
CG010600070,-4.393056,13.756386,Mouyondzi,Bouenza,Congo
CG010600071,-4.347774,13.886115,Kinsouari,Bouenza,Congo
CG010600072,-4.349447,13.873614,Kenge,Bouenza,Congo
CG010600073,-4.352777,13.862499,Mpengui,Bouenza,Congo
CG010600074,-4.345277,13.88556,Pengi,Bouenza,Congo
CG010600075,-4.35639,13.84722,Kolo,Bouenza,Congo
CG010600076,-4.371947,13.778615,Kimpeni,Bouenza,Congo
CG010600077,-4.38806,13.727226,Kimperi,Bouenza,Congo
CG010600078,-4.38444,13.736946,Mouleke,Bouenza,Congo
CG010600079,-4.365558,13.782499,Kimpele,Bouenza,Congo
CG010600080,-4.350557,13.81306,Giri,Bouenza,Congo
CG010600081,-4.348055,13.798332,Koso,Bouenza,Congo
CG010600082,-4.365833,13.735274,Dzanga,Bouenza,Congo
CG010600083,-4.314448,13.889443,Belo,Bouenza,Congo
CG010600084,-4.30722,13.907781,Youkoy,Bouenza,Congo
CG010600085,-4.308059,13.875558,Kinsoko,Bouenza,Congo
CG010600086,-4.3075,13.852502,Kingouala,Bouenza,Congo
CG010600087,-4.326386,13.77694,Mousenge,Bouenza,Congo
CG010600088,-4.29611,13.850834,Louboto,Bouenza,Congo
CG010600089,-4.334444,13.722226,Mbounou,Bouenza,Congo
CG010600090,-4.305557,13.788884,Moubiri,Bouenza,Congo
CG010600091,-4.323885,13.730281,Makoungou,Bouenza,Congo
CG010600092,-4.283889,13.856114,Kitoumba,Bouenza,Congo
CG010600093,-4.283889,13.856114,Mangoufou,Bouenza,Congo
CG010600094,-4.300281,13.781667,Sonel-Louamba,Bouenza,Congo
CG010600095,-4.300281,13.781667,Kidamba Ngosi,Bouenza,Congo
CG010700001,-4.037774,14.052499,Founvou,Bouenza,Congo
CG010700002,-4.05333,13.941109,Kimbonga-Louamba,Bouenza,Congo
CG010700003,-4.04889,13.955833,Kilounga,Bouenza,Congo
CG010700004,-4.022498,14.016108,Kimpalanga,Bouenza,Congo
CG010700005,-4.022498,14.016108,Dakar,Bouenza,Congo
CG010700006,-4.025281,14.006386,Daker,Bouenza,Congo
CG010700007,-4.034997,13.935557,Moandangoma,Bouenza,Congo
CG010700008,-4.00806,14.022223,Kimpambou-Loukelo,Bouenza,Congo
CG010700009,-4.011393,13.981389,Jacob,Bouenza,Congo
CG010700010,-4.023058,13.936671,Kai,Bouenza,Congo
CG010700011,-4.00639,13.981107,Kaye,Bouenza,Congo
CG010700012,-4.00639,13.981107,Kayes,Bouenza,Congo
CG010700013,-3.991671,14.016667,Nkayi,Bouenza,Congo
CG010700014,-4.001663,13.976943,Kimpambou,Bouenza,Congo
CG010700015,-4.00667,13.952221,Ntandou,Bouenza,Congo
CG010700016,-3.981665,14.030001,Kimbanda,Bouenza,Congo
CG010700017,-4.012775,13.903611,Kandou,Bouenza,Congo
CG010700018,-3.968336,14.049165,Moutela,Bouenza,Congo
CG010700019,-3.968336,14.049165,Kimbenze,Bouenza,Congo
CG010700020,-4.018886,13.861666,Youiounkoye,Bouenza,Congo
CG010700021,-4.012776,13.877779,Kiosi,Bouenza,Congo
CG010700022,-3.998332,13.918888,Kimbaka,Bouenza,Congo
CG010700023,-3.981115,13.972221,Bosso II,Bouenza,Congo
CG010700024,-3.990556,13.914448,Kimbana,Bouenza,Congo
CG010700025,-3.990556,13.914448,Madoungou,Bouenza,Congo
CG010700026,-3.954448,14.038886,Mpono I,Bouenza,Congo
CG010700027,-4.001108,13.851666,Boso,Bouenza,Congo
CG010700028,-3.94972,14.025832,Kidzoumba,Bouenza,Congo
CG010700029,-3.94972,14.025832,Kingola,Bouenza,Congo
CG010700030,-3.955833,13.964444,Ngenge,Bouenza,Congo
CG010700031,-3.94556,13.95944,Miambi,Bouenza,Congo
CG010700032,-3.952778,13.89,Mouliene,Bouenza,Congo
CG010700033,-3.952778,13.89,Kikaya II,Bouenza,Congo
CG010700034,-3.925275,13.955557,Kilonga,Bouenza,Congo
CG010700035,-3.921115,13.955832,Kikaya I,Bouenza,Congo
CG010700036,-3.912496,13.9575,Mayoulou,Bouenza,Congo
CG010700037,-3.923053,13.908889,Tsiangi II,Bouenza,Congo
CG010700038,-3.951386,13.806109,Boumou,Bouenza,Congo
CG010700039,-3.933329,13.803893,Tsiangi I,Bouenza,Congo
CG010700040,-3.905837,13.899726,Tsiangui I,Bouenza,Congo
CG010700041,-3.912218,13.86889,Tsiaki,Bouenza,Congo
CG010700042,-3.882218,13.969722,Kimboto,Bouenza,Congo
CG010700043,-3.868332,13.976115,Masia,Bouenza,Congo
CG010700044,-3.914996,13.80472,Massia,Bouenza,Congo
CG010700045,-3.873614,13.89667,Tsiaki II,Bouenza,Congo
CG010700046,-3.896666,13.788329,Kifoulou,Bouenza,Congo
CG010700047,-3.888887,13.775832,Kimalou,Bouenza,Congo
CG010700048,-3.889169,13.745835,Tsomono,Bouenza,Congo
CG010700049,-3.872776,13.749722,Tsomono I,Bouenza,Congo
CG010700050,-3.862497,13.734447,Mousanga-Mayaka,Bouenza,Congo
CG010800001,-4.424997,13.279998,Niari,Bouenza,Congo
CG010800002,-4.405275,13.28389,Masangi,Bouenza,Congo
CG010800003,-4.377503,13.291107,Massangui,Bouenza,Congo
CG010800004,-4.321385,13.399163,Doungou,Bouenza,Congo
CG010800005,-4.29917,13.409723,Doungou I,Bouenza,Congo
CG010800006,-4.304998,13.377496,Poumou,Bouenza,Congo
CG010800007,-4.282779,13.327504,Boumbou,Bouenza,Congo
CG010800008,-4.271667,13.336391,Boumbou I,Bouenza,Congo
CG010800009,-4.27361,13.327496,Kibouari,Bouenza,Congo
CG010800010,-4.269443,13.328613,Nzao I,Bouenza,Congo
CG010800011,-4.261391,13.318614,Doungou II,Bouenza,Congo
CG010800012,-4.261391,13.318614,Boumbou II,Bouenza,Congo
CG010800013,-4.255001,13.315836,Moussoubou,Bouenza,Congo
CG010800014,-4.24222,13.339166,Yamba,Bouenza,Congo
CG010800015,-4.250558,13.27361,Manda,Bouenza,Congo
CG010800016,-4.199442,13.401947,Kindamba I,Bouenza,Congo
CG010800017,-4.211115,13.357778,Tembele,Bouenza,Congo
CG010800018,-4.201112,13.365833,Maniangou,Bouenza,Congo
CG010800019,-4.17222,13.410279,Modokou,Bouenza,Congo
CG010800020,-4.200837,13.313332,Kindzaka,Bouenza,Congo
CG010800021,-4.200837,13.313332,Dingi,Bouenza,Congo
CG010800022,-4.187782,13.335553,Mpembe,Bouenza,Congo
CG010800023,-4.165276,13.375275,Bambembe,Bouenza,Congo
CG010800024,-4.190136,13.282444,Moukoso,Bouenza,Congo
CG010800025,-4.158337,13.348053,Boumbi,Bouenza,Congo
CG010800026,-4.165553,13.292774,Moutele,Bouenza,Congo
CG010800027,-4.165553,13.292774,Moutembese,Bouenza,Congo
CG010800028,-4.165553,13.292774,Mingenge,Bouenza,Congo
CG010800029,-4.165553,13.292774,Nkila,Bouenza,Congo
CG010800030,-4.165553,13.292774,Nkila-Ntari,Bouenza,Congo
CG010800031,-4.170005,13.273337,Miyamba,Bouenza,Congo
CG010800032,-4.165276,13.261387,Zonzo,Bouenza,Congo
CG010800033,-4.147781,13.29972,Tebele,Bouenza,Congo
CG010800034,-4.161944,13.215004,Moudzanga I,Bouenza,Congo
CG010800035,-4.156109,13.214171,Bikouka,Bouenza,Congo
CG010800036,-4.13028,13.286113,Kikouimba,Bouenza,Congo
CG010800037,-4.144724,13.189719,Kinsana,Bouenza,Congo
CG010800038,-4.111943,13.291114,Kintsana,Bouenza,Congo
CG010800039,-4.148336,13.168331,Massissia,Bouenza,Congo
CG010800040,-4.147781,13.151113,Madibou,Bouenza,Congo
CG010800041,-4.147221,13.151385,Kibouende,Bouenza,Congo
CG010800042,-4.143059,13.154447,Bacongo,Bouenza,Congo
CG010900001,-3.806663,13.883888,Baoongo,Bouenza,Congo
CG010900002,-3.845001,13.726108,Village Bacongo,Bouenza,Congo
CG010900003,-3.766384,13.986942,Kintsoundi,Bouenza,Congo
CG010900004,-3.838057,13.72167,Brazzaville,Bouenza,Congo
CG010900005,-3.801942,13.843337,Maya-Maya,Bouenza,Congo
CG010900006,-3.833889,13.71639,N'Tamo,Bouenza,Congo
CG010900007,-3.779163,13.903058,Kinkozo,Bouenza,Congo
CG010900008,-3.784724,13.873615,Poto Poto,Bouenza,Congo
CG010900009,-3.827497,13.718336,Samba,Bouenza,Congo
CG010900010,-3.76556,13.925559,Kibouende VIII,Bouenza,Congo
CG010900011,-3.751389,13.958055,Inga,Bouenza,Congo
CG010900012,-3.751947,13.948059,Tsieme-Mandiele,Bouenza,Congo
CG010900013,-3.802222,13.685832,Ngamoueri,Bouenza,Congo
CG010900014,-3.76389,13.746107,Boukiero,Bouenza,Congo
CG010900015,-3.786664,13.655279,Mont Boukiero,Bouenza,Congo
CG010900016,-3.73972,13.822503,Kintsoundi II,Bouenza,Congo
CG010900017,-3.732218,13.832777,Kibouende II,Bouenza,Congo
CG010900018,-3.708334,13.913887,Manianga,Bouenza,Congo
CG010900019,-3.731388,13.827502,Manyanga,Bouenza,Congo
CG010900020,-3.711669,13.86167,Mouyanga,Bouenza,Congo
CG010900021,-3.711669,13.86167,Kingoma I,Bouenza,Congo
CG010900022,-3.716388,13.832501,Okouesse,Bouenza,Congo
CG010900023,-3.681115,13.919719,Okwese,Bouenza,Congo
CG010900024,-3.703329,13.826945,Ondingi,Bouenza,Congo
CG010900025,-3.676946,13.821109,Oningui,Bouenza,Congo
CG010900026,-3.633888,13.964719,Otsene,Bouenza,Congo
CG010900027,-3.626115,13.978053,Otsenie,Bouenza,Congo
CG010900028,-3.64111,13.892775,Odikango,Bouenza,Congo
CG010900029,-3.64111,13.892775,Odikangou,Bouenza,Congo
CG010900030,-3.658053,13.802498,Mokana,Bouenza,Congo
CG010900031,-3.646948,13.810831,Engondo,Bouenza,Congo
CG010900032,-3.628054,13.860552,Koulou,Bouenza,Congo
CG010900033,-3.635555,13.813331,Okoulou,Bouenza,Congo
CG010900034,-3.620002,13.837776,Saint-Francois,Bouenza,Congo
CG010900035,-3.620002,13.837776,Saint-Francois de Boundji,Bouenza,Congo
CG011000001,-4.296942,13.938052,Tsongo II,Bouenza,Congo
CG011000002,-4.20167,14.089163,Abolo,Bouenza,Congo
CG011000003,-4.222222,13.953615,Obolo,Bouenza,Congo
CG011000004,-4.157218,14.153054,Oliri,Bouenza,Congo
CG011000005,-4.180553,14.011392,Boundji,Bouenza,Congo
CG011000006,-4.180553,14.011392,Saint-Benoit,Bouenza,Congo
CG011000007,-4.145553,14.107498,Engana,Bouenza,Congo
CG011000008,-4.145553,14.107498,Enganaga,Bouenza,Congo
CG011000009,-4.151115,14.059446,Esimbi,Bouenza,Congo
CG011000010,-4.172776,13.970555,Ekogo,Bouenza,Congo
CG011000011,-4.172776,13.970555,Ekami,Bouenza,Congo
CG011000012,-4.140834,14.070837,Ekiembe,Bouenza,Congo
CG011000013,-4.156945,14.011944,Abela,Bouenza,Congo
CG011000014,-4.134999,14.085555,Eyongo,Bouenza,Congo
CG011000015,-4.165833,13.959996,Eyoungou,Bouenza,Congo
CG011000016,-4.119996,14.112779,Ossiele,Bouenza,Congo
CG011000017,-4.15139,13.968609,Tseka,Bouenza,Congo
CG011000018,-4.135278,14.016385,Gouoni,Bouenza,Congo
CG011000019,-4.122781,14.056669,Ngouoni,Bouenza,Congo
CG011000020,-4.153608,13.949445,Ongondza II,Bouenza,Congo
CG011000021,-4.108054,14.103333,Olongone,Bouenza,Congo
CG011000022,-4.110837,14.084997,Ongondza I,Bouenza,Congo
CG011000023,-4.176945,13.852776,Ongoundja,Bouenza,Congo
CG011000024,-4.184165,13.823613,Okoungou,Bouenza,Congo
CG011000025,-4.152778,13.853892,Mbesse,Bouenza,Congo
CG011000026,-4.111114,13.977499,Tsongo,Bouenza,Congo
CG011000027,-4.078052,14.081945,Tsongo I,Bouenza,Congo
CG011000028,-4.103057,13.980004,Ebongui,Bouenza,Congo
CG011000029,-4.114999,13.913337,Obongui,Bouenza,Congo
CG011000030,-4.13056,13.8575,Oboungui,Bouenza,Congo
CG011000031,-4.08333,14.016665,Endagui,Bouenza,Congo
CG011000032,-4.061391,14.083053,Lebounga,Bouenza,Congo
CG011000033,-4.092225,13.969442,Libounga,Bouenza,Congo
CG011000034,-4.085278,13.976108,Ekoumoukou,Bouenza,Congo
CG011000035,-4.120278,13.852776,Foura,Bouenza,Congo
CG011000036,-4.120278,13.852776,Foura-Okangui,Bouenza,Congo
CG011000037,-4.048892,14.076663,Etoumi,Bouenza,Congo
CG011000038,-4.091386,13.922782,Abana,Bouenza,Congo
CG011000039,-4.085275,13.932221,Indzomoka,Bouenza,Congo
CG011000040,-4.100278,13.877496,Indzomoko,Bouenza,Congo
CG011000041,-4.100278,13.877496,Ontogo,Bouenza,Congo
CG011000042,-4.072782,13.958892,Mosasako,Bouenza,Congo
CG020100001,-4.317499,15.18611,Bakelo,Brazzaville,Congo
CG020100002,-4.319719,15.17389,Loukokela,Brazzaville,Congo
CG020100003,-4.319719,15.17389,Loukolela,Brazzaville,Congo
CG020100004,-4.308331,15.202221,Lekendzie,Brazzaville,Congo
CG020100005,-4.309998,15.191668,Likendze,Brazzaville,Congo
CG020100006,-4.311113,15.183891,Matoko,Brazzaville,Congo
CG020100007,-4.295831,15.223612,Bilembe,Brazzaville,Congo
CG020100008,-4.295831,15.223612,Botonou,Brazzaville,Congo
CG020100009,-4.295831,15.223612,Sossolo,Brazzaville,Congo
CG020100010,-4.285557,15.213885,Mongo,Brazzaville,Congo
CG020100011,-4.259163,15.284725,Irebo,Brazzaville,Congo
CG020100012,-4.259163,15.284725,Irebou,Brazzaville,Congo
CG020100013,-4.259163,15.284725,Ngombe,Brazzaville,Congo
CG020100014,-4.28611,15.175829,Bayengue,Brazzaville,Congo
CG020100015,-4.239996,15.301389,Boyenghe,Brazzaville,Congo
CG020100016,-4.260004,15.197775,Boyengue,Brazzaville,Congo
CG020100017,-4.257779,15.199171,Boyenngue,Brazzaville,Congo
CG020100018,-4.24639,15.228608,Boleko,Brazzaville,Congo
CG020100019,-4.226947,15.287498,Motemabiongo,Brazzaville,Congo
CG020100020,-4.235,15.227775,Bakouango,Brazzaville,Congo
CG020100021,-4.198613,15.285,Bakouengo,Brazzaville,Congo
CG020100022,-4.198613,15.285,Bakouenngo,Brazzaville,Congo
CG020100023,-4.199446,15.257221,Mambangue,Brazzaville,Congo
CG020100024,-4.185833,15.251387,Mozolonmba,Brazzaville,Congo
CG020100025,-4.164171,15.312496,Botouali,Brazzaville,Congo
CG020100026,-4.164171,15.312496,Botouli,Brazzaville,Congo
CG020100027,-4.164171,15.312496,Kounda-Moliba,Brazzaville,Congo
CG020100028,-4.173337,15.256392,Misongo,Brazzaville,Congo
CG030100001,-1.159163,15.16139,Missongo,Cuvette,Congo
CG030100002,-1.159163,15.16139,Kondso,Cuvette,Congo
CG030100003,-1.129722,15.175275,Bonndo,Cuvette,Congo
CG030100004,-1.129722,15.175275,Mbondo,Cuvette,Congo
CG030100005,-1.095836,15.231666,Langa-Bouennza,Cuvette,Congo
CG030100006,-1.095836,15.231666,Bokoma,Cuvette,Congo
CG030100007,-1.075278,15.270835,Langa-Langa,Cuvette,Congo
CG030100008,-1.075278,15.270835,Mobaka,Cuvette,Congo
CG030100009,-1.068053,15.326669,Youmba,Cuvette,Congo
CG030100010,-1.056947,15.291389,Youmbo,Cuvette,Congo
CG030100011,-1.053053,15.222782,Likaya,Cuvette,Congo
CG030100012,-1.053053,15.222782,Mossokoula,Cuvette,Congo
CG030100013,-1.040835,15.36278,Mokoungou,Cuvette,Congo
CG030100014,-1.040835,15.36278,Makouma-Sanmbo,Cuvette,Congo
CG030100015,-1.038886,15.319448,Lonmbo,Cuvette,Congo
CG030100016,-1.058335,15.024169,Ntongo-Atani,Cuvette,Congo
CG030100017,-1.058335,15.024169,Epele,Cuvette,Congo
CG030100018,-1.051115,15.044726,Mbala,Cuvette,Congo
CG030100019,-1.0275,15.359165,Ourombi,Cuvette,Congo
CG030100020,-1.0275,15.359165,Ouroum,Cuvette,Congo
CG030100021,-1.02389,15.359444,Ourumbi,Cuvette,Congo
CG030100022,-1.040276,15.075276,Ekouanguila,Cuvette,Congo
CG030100023,-1.040276,15.075276,Likouangoula,Cuvette,Congo
CG030100024,-1.01833,15.321388,Bobaka,Cuvette,Congo
CG030100025,-1.022778,15.094448,Loboko,Cuvette,Congo
CG030100026,-1.00222,15.293613,Bodzendzo,Cuvette,Congo
CG030100027,-1.00222,15.293613,Mosembe,Cuvette,Congo
CG030100028,-0.997782,15.343334,Mossembe,Cuvette,Congo
CG030100029,-1.007774,15.188058,lenge,Cuvette,Congo
CG030100030,-1.007774,15.188058,Likounda,Cuvette,Congo
CG030100031,-0.992774,15.390835,Molembe Kombe,Cuvette,Congo
CG030100032,-0.998058,15.291393,Mitoula,Cuvette,Congo
CG030100033,-1.006392,15.148331,Ancien Ngonbe,Cuvette,Congo
CG030100034,-0.979722,15.268886,Abenga,Cuvette,Congo
CG030100035,-0.979722,15.268886,Abinga,Cuvette,Congo
CG030100036,-0.967223,15.318336,Ikoumou,Cuvette,Congo
CG030100037,-0.95528,15.411664,Ikoumou-Okohoko,Cuvette,Congo
CG030100038,-0.960836,15.32194,Okokoko,Cuvette,Congo
CG030100039,-0.960836,15.32194,Oko-Oko,Cuvette,Congo
CG030100040,-0.956391,15.242774,Moembe,Cuvette,Congo
CG030100041,-0.953054,15.219441,Moumbi,Cuvette,Congo
CG030100042,-0.924443,15.375836,Niete Boumba,Cuvette,Congo
CG030100043,-0.923056,15.181115,Motsouembe,Cuvette,Congo
CG030100044,-0.880833,15.403891,Elanga,Cuvette,Congo
CG030100045,-0.888333,15.169169,Illanga,Cuvette,Congo
CG030100046,-0.888333,15.169169,Odongo,Cuvette,Congo
CG030100047,-0.86417,15.287221,Ondongo,Cuvette,Congo
CG030100048,-0.86417,15.287221,Ilebou,Cuvette,Congo
CG030100049,-0.86417,15.287221,Epombo,Cuvette,Congo
CG030100050,-0.842221,15.287776,Pombo,Cuvette,Congo
CG030100051,-0.737781,15.040552,Loumbia III,Cuvette,Congo
CG030100052,-0.730552,15.039446,Oyima,Cuvette,Congo
CG030100053,-0.730552,15.039446,Lombia,Cuvette,Congo
CG030100054,-0.701944,15.033613,Loumbia II,Cuvette,Congo
CG030100055,-0.697774,15.031941,Dzaka,Cuvette,Congo
CG030100056,-0.697774,15.031941,Ndzakou,Cuvette,Congo
CG030100057,-0.666669,15.049997,Loumbia I,Cuvette,Congo
CG030100058,-0.657775,15.03639,Lebango,Cuvette,Congo
CG030100059,-0.633329,15.066668,Motete,Cuvette,Congo
CG030100060,-0.632497,15.043885,Loumbia,Cuvette,Congo
CG030100061,-0.632497,15.043885,Ebongu,Cuvette,Congo
CG030100062,-0.618329,15.061671,Atekou I,Cuvette,Congo
CG030200001,-1.060282,16.99889,Emania,Cuvette,Congo
CG030200002,-1.052219,17.009718,Atekou II,Cuvette,Congo
CG030200003,-1.038055,17.113887,Emboli,Cuvette,Congo
CG030200004,-1.038055,17.113887,Embouli,Cuvette,Congo
CG030200005,-1.025559,17.195837,Mboli,Cuvette,Congo
CG030200006,-1.025559,17.195837,Bozongo,Cuvette,Congo
CG030200007,-1.007219,17.217497,Igouda,Cuvette,Congo
CG030200008,-0.982777,17.27778,Ihouda,Cuvette,Congo
CG030200009,-0.951667,17.309721,Ihouta,Cuvette,Congo
CG030200010,-0.93333,17.071947,Atekou III,Cuvette,Congo
CG030200011,-0.897496,17.372225,Apoko,Cuvette,Congo
CG030200012,-0.89167,17.130277,Elongo,Cuvette,Congo
CG030200013,-0.880282,17.139998,Olongo,Cuvette,Congo
CG030200014,-0.848054,17.395281,Libengue,Cuvette,Congo
CG030200015,-0.848054,17.395281,Ebal Oyeke,Cuvette,Congo
CG030200016,-0.857498,17.18861,Ebala-Oyeke,Cuvette,Congo
CG030200017,-0.83167,17.203333,Ebalo Yeke,Cuvette,Congo
CG030200018,-0.83167,17.203333,Ambangui,Cuvette,Congo
CG030200019,-0.83167,17.203333,Lombe,Cuvette,Congo
CG030200020,-0.83167,17.203333,Pamba-Odzaka,Cuvette,Congo
CG030200021,-0.803059,17.231113,Atekou,Cuvette,Congo
CG030200022,-0.791944,17.41556,Adiba,Cuvette,Congo
CG030200023,-0.770558,17.109448,Ognenguele,Cuvette,Congo
CG030200024,-0.770558,17.109448,Onienguele,Cuvette,Congo
CG030200025,-0.770558,17.109448,Ongomo,Cuvette,Congo
CG030200026,-0.736668,17.466109,Ongomon,Cuvette,Congo
CG030200027,-0.682775,17.175831,Yombe,Cuvette,Congo
CG030200028,-0.550001,17.368893,Youmbi,Cuvette,Congo
CG030200029,-0.550001,17.368893,Benze,Cuvette,Congo
CG030200030,-0.521943,17.142781,Mbenze,Cuvette,Congo
CG030200031,-0.406391,17.365,Mbessa-na-Obambi,Cuvette,Congo
CG030200032,-0.406391,17.365,Mbesso Ouambi,Cuvette,Congo
CG030200033,-0.405559,17.174726,Imagna,Cuvette,Congo
CG030200034,-0.396113,17.169164,Imagno,Cuvette,Congo
CG030200035,-0.396113,17.169164,Inagna,Cuvette,Congo
CG030200036,-0.386948,17.161385,Lango,Cuvette,Congo
CG030200037,-0.371945,17.13972,Lengo,Cuvette,Congo
CG030200038,-0.371111,17.148332,Mbesso-Ouambi,Cuvette,Congo
CG030200039,-0.362778,17.138891,Mouangui,Cuvette,Congo
CG030200040,-0.354169,17.368335,Mouengni,Cuvette,Congo
CG030200041,-0.354169,17.368335,Andjala,Cuvette,Congo
CG030200042,-0.343052,17.13278,Afoudou,Cuvette,Congo
CG030200043,-0.318891,17.146668,Andeko,Cuvette,Congo
CG030200044,-0.288331,17.110829,Etoka,Cuvette,Congo
CG030200045,-0.267496,17.132496,Lengui,Cuvette,Congo
CG030200046,-0.255556,17.117775,Lingue,Cuvette,Congo
CG030200047,-0.252223,17.097496,Obomba,Cuvette,Congo
CG030200048,-0.193334,17.123334,Ekimou,Cuvette,Congo
CG030200049,-0.18667,17.132502,Ikemou,Cuvette,Congo
CG030200050,-0.18444,17.1075,Ondza,Cuvette,Congo
CG030200051,-0.18444,17.1075,Ounza,Cuvette,Congo
CG030200052,-0.18444,17.1075,Assoukou,Cuvette,Congo
CG030200053,-0.154997,17.156943,Angomo,Cuvette,Congo
CG030200054,-0.154997,17.156943,Ifouta,Cuvette,Congo
CG030200055,-0.102778,17.135,Ekelaki,Cuvette,Congo
CG030200056,-0.102778,17.135,Ogna,Cuvette,Congo
CG030200057,-0.071391,17.424446,Onia,Cuvette,Congo
CG030200058,0.098333,17.483607,Otamboko,Cuvette,Congo
CG030200059,0.098333,17.483607,Opaka,Cuvette,Congo
CG030200060,0.194168,17.10583,Ebongo,Cuvette,Congo
CG030200061,0.200001,17.166665,Molebo,Cuvette,Congo
CG030200062,0.219447,17.103337,Ohembe,Cuvette,Congo
CG030200063,0.294164,17.054996,Boumba,Cuvette,Congo
CG030200064,0.365552,16.988334,Akounda,Cuvette,Congo
CG030200065,0.365552,16.988334,Ikou,Cuvette,Congo
CG030300001,-0.294726,15.761668,Essimbi,Cuvette,Congo
CG030300002,-0.294726,15.761668,Oya,Cuvette,Congo
CG030300003,-0.283336,15.766664,Eposso,Cuvette,Congo
CG030300004,-0.28056,15.758891,Iposso,Cuvette,Congo
CG030300005,-0.28056,15.758891,Makoua,Cuvette,Congo
CG030300006,-0.28056,15.758891,Makoue,Cuvette,Congo
CG030300007,-0.28056,15.758891,Otamba,Cuvette,Congo
CG030300008,-0.274163,15.761945,Otambo,Cuvette,Congo
CG030300009,-0.274163,15.761945,Oyombe,Cuvette,Congo
CG030300010,-0.239443,15.76472,Elombe,Cuvette,Congo
CG030300011,-0.226115,15.814726,Oyo,Cuvette,Congo
CG030300012,-0.225277,15.751393,Niossoka,Cuvette,Congo
CG030300013,-0.225277,15.751393,Oyeba,Cuvette,Congo
CG030300014,-0.22222,15.738058,Fouta,Cuvette,Congo
CG030300015,-0.22222,15.738058,Ouenze,Cuvette,Congo
CG030300016,-0.215281,15.7375,Obey,Cuvette,Congo
CG030300017,-0.20694,15.739441,Obeye,Cuvette,Congo
CG030300018,-0.20694,15.739441,Pombocho,Cuvette,Congo
CG030300019,-0.197226,15.888615,Pombosso,Cuvette,Congo
CG030300020,-0.19583,15.761393,Oyoue,Cuvette,Congo
CG030300021,-0.190831,15.869996,Vouma,Cuvette,Congo
CG030300022,-0.190831,15.869996,Voumamboko,Cuvette,Congo
CG030300023,-0.18806,15.739997,Voumanboko,Cuvette,Congo
CG030300024,-0.18806,15.739997,Angomon,Cuvette,Congo
CG030300025,-0.17889,15.866114,Banzana-Gouende,Cuvette,Congo
CG030300026,-0.17889,15.866114,Bendze-Nagouende,Cuvette,Congo
CG030300027,-0.178054,15.738334,Mabela,Cuvette,Congo
CG030300028,-0.154166,15.878055,Mobela,Cuvette,Congo
CG030300029,-0.152501,15.888891,Ifoundaka,Cuvette,Congo
CG030300030,-0.156114,15.510559,Angomon II,Cuvette,Congo
CG030300031,-0.156114,15.510559,Mango,Cuvette,Congo
CG030300032,-0.152504,15.823053,Assoko,Cuvette,Congo
CG030300033,-0.150281,15.973607,Ikossa,Cuvette,Congo
CG030300034,-0.148053,15.819997,Okia,Cuvette,Congo
CG030300035,-0.150559,15.511943,Guio,Cuvette,Congo
CG030300036,-0.150559,15.511943,Nguio,Cuvette,Congo
CG030300037,-0.150559,15.511943,Mboko,Cuvette,Congo
CG030300038,-0.144169,15.913889,Dongo,Cuvette,Congo
CG030300039,-0.146669,15.532504,Ndongo,Cuvette,Congo
CG030300040,-0.146669,15.532504,Oyoue I,Cuvette,Congo
CG030300041,-0.146669,15.532504,Nzoyo,Cuvette,Congo
CG030300042,-0.14278,15.803059,Adinga,Cuvette,Congo
CG030300043,-0.143334,15.726669,Adinnga,Cuvette,Congo
CG030300044,-0.133331,15.928886,Odinga,Cuvette,Congo
CG030300045,-0.133331,15.928886,Odinnga,Cuvette,Congo
CG030300046,-0.132501,15.848886,Bondjo,Cuvette,Congo
CG030300047,-0.128054,15.748334,Obondjo,Cuvette,Congo
CG030300048,-0.129443,15.549721,Ossake,Cuvette,Congo
CG030300049,-0.129443,15.549721,Oyoue II,Cuvette,Congo
CG030300050,-0.129443,15.549721,Onanga,Cuvette,Congo
CG030300051,-0.124171,15.806392,Bokania,Cuvette,Congo
CG030300052,-0.122496,15.84389,Atali,Cuvette,Congo
CG030300053,-0.12222,15.70583,Essongo,Cuvette,Congo
CG030300054,-0.120833,15.806113,Issongo,Cuvette,Congo
CG030300055,-0.120552,15.832496,Bouya,Cuvette,Congo
CG030300056,-0.115004,15.560558,Boya,Cuvette,Congo
CG030300057,-0.115004,15.560558,Nvoui,Cuvette,Congo
CG030300058,-0.100282,15.674719,Tsongo-Otama,Cuvette,Congo
CG030300059,-0.100282,15.674719,Aeko,Cuvette,Congo
CG030300060,-0.098611,15.563614,Onganaka,Cuvette,Congo
CG030300061,-0.085004,15.577776,Otama,Cuvette,Congo
CG030300062,-0.085004,15.577776,Otema,Cuvette,Congo
CG030300063,-0.081114,16.021389,Moindje,Cuvette,Congo
CG030300064,-0.071114,15.808332,Mouandjou,Cuvette,Congo
CG030300065,-0.071114,15.808332,Mourandjok,Cuvette,Congo
CG030300066,-0.070282,15.751109,Komba,Cuvette,Congo
CG030300067,-0.070282,15.751109,Ossomba,Cuvette,Congo
CG030300068,-0.066669,15.966668,Ossombo,Cuvette,Congo
CG030300069,-0.066669,15.966668,Oussoumba-Issongue,Cuvette,Congo
CG030300070,-0.066669,15.966668,Issengue,Cuvette,Congo
CG030300071,-0.067498,15.656666,Aboua,Cuvette,Congo
CG030300072,-0.067498,15.656666,Ikoundoutaba,Cuvette,Congo
CG030300073,-0.056948,15.755279,Koundoutaba,Cuvette,Congo
CG030300074,-0.048057,15.601391,Okando,Cuvette,Congo
CG030300075,-0.048057,15.601391,Okondo,Cuvette,Congo
CG030300076,-0.038892,15.598336,Tsiako,Cuvette,Congo
CG030300077,-0.03417,15.598336,Ngame,Cuvette,Congo
CG030300078,-0.03417,15.598336,Ngami,Cuvette,Congo
CG030300079,-0.03333,15.01667,Dinga,Cuvette,Congo
CG030300080,-0.03333,15.01667,Ossindo,Cuvette,Congo
CG030300081,-0.025277,15.636114,Oboumba,Cuvette,Congo
CG030300082,-0.025277,15.636114,Doua,Cuvette,Congo
CG030300083,-0.020274,15.610278,Otala,Cuvette,Congo
CG030300084,-0.017776,15.75083,Obala,Cuvette,Congo
CG030300085,-0.017776,15.75083,Ota,Cuvette,Congo
CG030300086,-0.017777,15.687497,Doua-Ossendjo,Cuvette,Congo
CG030300087,-0.017777,15.687497,Eguinndi,Cuvette,Congo
CG030300088,-0.016112,15.698334,Inguindi,Cuvette,Congo
CG030300089,-0.016665,15.033332,Tsongapa,Cuvette,Congo
CG030300090,-0.01528,15.675833,Tsongo-Pa,Cuvette,Congo
CG030300091,-0.013054,15.627775,Ofou,Cuvette,Congo
CG030300092,-0.012222,15.7775,Opfou,Cuvette,Congo
CG030300093,-0.012222,15.7775,Mvoula,Cuvette,Congo
CG030300094,-0.010557,15.71583,Sembe,Cuvette,Congo
CG030300095,-0.01083,14.965832,Assouangui,Cuvette,Congo
CG030300096,-0.009445,15.571943,Ossonangai,Cuvette,Congo
CG030300097,-0.001393,15.605003,Ossouangui,Cuvette,Congo
CG030300098,0,15.666667,Innguegue,Cuvette,Congo
CG030300099,0.000832,15.560279,Assaki-Moke,Cuvette,Congo
CG030300100,0.001665,15.800837,Pakandjako,Cuvette,Congo
CG030300101,0.003058,15.520559,Pakandjoko,Cuvette,Congo
CG030300102,0.003058,15.980559,Pakandjolo,Cuvette,Congo
CG030300103,0.004442,15.55389,Assaki,Cuvette,Congo
CG030300104,0.006115,15.783054,Ikingaoussa,Cuvette,Congo
CG030300105,0.006387,15.52472,Ikinnga Ouassa,Cuvette,Congo
CG030300106,0.006387,15.52472,Epede,Cuvette,Congo
CG030300107,0.006948,15.633337,Epete,Cuvette,Congo
CG030300108,0.006948,15.633337,Mohali,Cuvette,Congo
CG030300109,0.007499,15.831667,Mouali,Cuvette,Congo
CG030300110,0.007499,15.831667,Angale,Cuvette,Congo
CG030300111,0.007499,15.923609,Angali,Cuvette,Congo
CG030300112,0.007499,15.923609,Ingueke,Cuvette,Congo
CG030300113,0.008893,15.753059,Inngueke,Cuvette,Congo
CG030300114,0.014718,15.861113,Odzala,Cuvette,Congo
CG030300115,0.016393,15.630282,Ozala,Cuvette,Congo
CG030300116,0.016664,15.533329,Essingue,Cuvette,Congo
CG030300117,0.016664,15.750003,Ehounda,Cuvette,Congo
CG030300118,0.019442,15.611114,Ihoura,Cuvette,Congo
CG030300119,0.022499,15.5975,Eboniman,Cuvette,Congo
CG030300120,0.022499,15.5975,Ibonima,Cuvette,Congo
CG030300121,0.036667,15.596386,Ohoudi,Cuvette,Congo
CG030300122,0.036667,15.596386,Ohouri,Cuvette,Congo
CG030300123,0.0375,15.483059,Ekagna,Cuvette,Congo
CG030300124,0.042221,15.668886,Ekania,Cuvette,Congo
CG030300125,0.042221,15.668886,Yengo,Cuvette,Congo
CG030300126,0.042221,15.668886,Nlokou Olholo,Cuvette,Congo
CG030300127,0.044169,15.004448,Ntokou,Cuvette,Congo
CG030300128,0.042782,15.652226,Ntokou-na-Otolo,Cuvette,Congo
CG030300129,0.042782,15.652226,Ntokou-Otolo,Cuvette,Congo
CG030300130,0.04444,15.117502,N'Tokouotolo,Cuvette,Congo
CG030300131,0.04444,15.117502,Ntokou-Otolou,Cuvette,Congo
CG030300132,0.04444,15.117502,Ikamou,Cuvette,Congo
CG030300133,0.043614,15.64333,Kounda (CFHBC),Cuvette,Congo
CG030300134,0.046114,15.057219,Kounda Sud,Cuvette,Congo
CG030300135,0.046114,15.057219,Kounda Katikati,Cuvette,Congo
CG030300136,0.04556,15.580831,Kounda Nord,Cuvette,Congo
CG030300137,0.046942,15.774167,Lilanga,Cuvette,Congo
CG030300138,0.046942,15.774167,Boniala,Cuvette,Congo
CG030300139,0.050281,15.728329,Konziolo,Cuvette,Congo
CG030300140,0.05028,15.792777,Bonbe,Cuvette,Congo
CG030300141,0.05028,15.792777,Tsetse,Cuvette,Congo
CG030300142,0.055004,15.697498,Lokwele,Cuvette,Congo
CG030300143,0.058888,15.363889,Botchebe,Cuvette,Congo
CG030300144,0.058888,15.363889,Boka,Cuvette,Congo
CG030300145,0.060281,15.344442,Mobenga,Cuvette,Congo
CG030300146,0.060281,15.344442,Bohoulou,Cuvette,Congo
CG030300147,0.058891,15.860278,Maloulou,Cuvette,Congo
CG030300148,0.060832,15.438891,Mbenza,Cuvette,Congo
CG030300149,0.060832,15.438891,Motoumongonde,Cuvette,Congo
CG030300150,0.059171,15.915558,Sengolo,Cuvette,Congo
CG030300151,0.059171,15.915558,Mossaka,Cuvette,Congo
CG030300152,0.059443,15.881664,Village Mossaka,Cuvette,Congo
CG030300153,0.059443,15.881664,Ekoumani,Cuvette,Congo
CG030300154,0.061388,15.837499,Lokanga,Cuvette,Congo
CG030300155,0.063891,15.343615,Botena,Cuvette,Congo
CG030300156,0.063891,15.343615,Mossaka II,Cuvette,Congo
CG030300157,0.063337,15.558329,Mbamou,Cuvette,Congo
CG030300158,0.066389,15.250002,Mobia,Cuvette,Congo
CG030300159,0.066668,15.416667,Bokoso,Cuvette,Congo
CG030300160,0.06722,15.330558,Makolondanbo,Cuvette,Congo
CG030300161,0.06722,15.330558,Liboua,Cuvette,Congo
CG030300162,0.077502,15.737226,Bobongo,Cuvette,Congo
CG030300163,0.077502,15.737226,Bokoso III,Cuvette,Congo
CG030300164,0.077498,15.951941,Bokoso Three,Cuvette,Congo
CG030300165,0.084725,15.500556,Ekouli,Cuvette,Congo
CG030300166,0.084725,15.500556,Bokoso II,Cuvette,Congo
CG030300167,0.085829,15.464448,Bokoso Two,Cuvette,Congo
CG030300168,0.083612,15.965833,Mbaya,Cuvette,Congo
CG030300169,0.094722,15.4475,Montzonolo,Cuvette,Congo
CG030300170,0.094722,15.4475,Bonga,Cuvette,Congo
CG030300171,0.096664,15.673893,Boyoko-Biri,Cuvette,Congo
CG030300172,0.096664,15.673893,Mbiri,Cuvette,Congo
CG030300173,0.096664,15.673893,Bisel,Cuvette,Congo
CG030300174,0.099445,15.47667,Etdjama,Cuvette,Congo
CG030300175,0.103053,15.565833,Bosalo,Cuvette,Congo
CG030300176,0.103053,15.565833,Likouka,Cuvette,Congo
CG030300177,0.103053,15.565833,Linyanga,Cuvette,Congo
CG030300178,0.106391,15.563335,Bobousa,Cuvette,Congo
CG030300179,0.106391,15.586385,Libala,Cuvette,Congo
CG030300180,0.114722,15.630831,Makenenge,Cuvette,Congo
CG030300181,0.114722,15.630831,Lekendze,Cuvette,Congo
CG030300182,0.114997,15.843889,Motoko,Cuvette,Congo
CG030300183,0.114997,15.843889,Botando,Cuvette,Congo
CG030300184,0.118885,15.566948,Maboko,Cuvette,Congo
CG030300185,0.132501,15.554718,Bouegni,Cuvette,Congo
CG030300186,0.132501,15.554718,Ndole,Cuvette,Congo
CG030300187,0.13333,15.950002,Mokondo,Cuvette,Congo
CG030300188,0.140558,15.684722,Yengo Moke,Cuvette,Congo
CG030300189,0.138614,15.924726,Yengo Monenn,Cuvette,Congo
CG030300190,0.141944,15.608887,Ebosso,Cuvette,Congo
CG030300191,0.143607,15.664719,Bonngoma-Botouali,Cuvette,Congo
CG030300192,0.14694,15.536943,Kouanze,Cuvette,Congo
CG030300193,0.14694,15.543889,Ekanda,Cuvette,Congo
CG030300194,0.14694,15.543889,Esombi,Cuvette,Congo
CG030300195,0.14694,15.543889,Essombi,Cuvette,Congo
CG030300196,0.147497,15.675556,Bokanda,Cuvette,Congo
CG030300197,0.147497,15.675556,Bobueta,Cuvette,Congo
CG030300198,0.148059,15.649442,Ite,Cuvette,Congo
CG030300199,0.148059,15.649442,Bossaki,Cuvette,Congo
CG030300200,0.162501,15.52944,Ngoudi,Cuvette,Congo
CG030300201,0.160554,15.853057,Konga,Cuvette,Congo
CG030300202,0.160554,15.853057,Ekouamou,Cuvette,Congo
CG030300203,0.171944,15.60417,Ekovamou,Cuvette,Congo
CG030300204,0.182775,15.530833,Ebounga,Cuvette,Congo
CG030300205,0.182775,15.530833,Ibonga,Cuvette,Congo
CG030300206,0.194443,15.6025,Lebala,Cuvette,Congo
CG030300207,0.196389,15.568334,Ossaga,Cuvette,Congo
CG030300208,0.20361,15.535552,Opagui,Cuvette,Congo
CG030300209,0.205552,15.607775,Ndounga,Cuvette,Congo
CG030300210,0.210558,15.537223,Tsama,Cuvette,Congo
CG030300211,0.208615,15.712222,Ntsama,Cuvette,Congo
CG030300212,0.208615,15.712222,Oyenze II,Cuvette,Congo
CG030300213,0.208615,15.712222,Ovendze,Cuvette,Congo
CG030300214,0.209448,15.684724,Oyendze,Cuvette,Congo
CG030300215,0.219446,15.661388,Oyenze I,Cuvette,Congo
CG030300216,0.225558,15.524167,Ossangui,Cuvette,Congo
CG030300217,0.227775,15.516942,Otogo Ollibi,Cuvette,Congo
CG030300218,0.228331,15.63389,Mbandza,Cuvette,Congo
CG030300219,0.228331,15.63389,Bandza Moke,Cuvette,Congo
CG030300220,0.228331,15.63389,Okiba,Cuvette,Congo
CG030300221,0.237782,15.497226,Okila,Cuvette,Congo
CG030300222,0.246114,15.485553,Edigui,Cuvette,Congo
CG030300223,0.242503,15.726386,Moangui,Cuvette,Congo
CG030300224,0.242503,15.726386,Ongouba,Cuvette,Congo
CG030300225,0.25583,15.492499,Ngoko,Cuvette,Congo
CG030300226,0.25583,15.492499,Niongo,Cuvette,Congo
CG030300227,0.261385,15.493614,Moshue,Cuvette,Congo
CG030300228,0.262779,15.491385,Bouniangoulou,Cuvette,Congo
CG030300229,0.262779,15.491385,Bouyengoulou,Cuvette,Congo
CG030300230,0.277778,15.489724,Okoue,Cuvette,Congo
CG030300231,0.277778,15.489724,Bonanga,Cuvette,Congo
CG030300232,0.275277,15.744719,Ntokou-Raymondville,Cuvette,Congo
CG030300233,0.275277,15.744719,Ntokou-Remondville,Cuvette,Congo
CG030300234,0.278055,15.742778,Bossoungui,Cuvette,Congo
CG030300235,0.278055,15.742778,Ntokou-Fago,Cuvette,Congo
CG030300236,0.287504,15.480558,Remondville,Cuvette,Congo
CG030300237,0.287504,15.480558,Ntokou Aime,Cuvette,Congo
CG030300238,0.287776,15.474168,Nkouda,Cuvette,Congo
CG030300239,0.296669,15.473611,Nkounda,Cuvette,Congo
CG030300240,0.296669,15.473611,Okombe,Cuvette,Congo
CG030300241,0.320835,15.756108,Okouembe,Cuvette,Congo
CG030300242,0.320835,15.756108,Oko,Cuvette,Congo
CG030300243,0.331392,15.460277,Ikai,Cuvette,Congo
CG030300244,0.331392,15.460277,Ahouma,Cuvette,Congo
CG030300245,0.34167,15.45139,Dongoniama,Cuvette,Congo
CG030300246,0.34167,15.45139,Dongo-Niama,Cuvette,Congo
CG030300247,0.346664,15.444722,Ombebo,Cuvette,Congo
CG030300248,0.343892,15.786941,Pango,Cuvette,Congo
CG030300249,0.343892,15.786941,Tsabou-Tsabou,Cuvette,Congo
CG030300250,0.343892,15.786941,Odio,Cuvette,Congo
CG030300251,0.343892,15.786941,Eka,Cuvette,Congo
CG030300252,0.343892,15.786941,Obouya,Cuvette,Congo
CG030300253,0.343892,15.786941,Ando,Cuvette,Congo
CG030300254,0.349998,15.53333,Okouna,Cuvette,Congo
CG030400001,-1.536392,16.629721,Inguena-Oyako,Cuvette,Congo
CG030400002,-1.528887,16.627226,Koubou,Cuvette,Congo
CG030400003,-1.519721,16.633609,Isseki,Cuvette,Congo
CG030400004,-1.512777,16.632498,Obeya,Cuvette,Congo
CG030400005,-1.491939,16.645836,Ibouma,Cuvette,Congo
CG030400006,-1.479999,16.550277,Ibouna,Cuvette,Congo
CG030400007,-1.457496,16.665274,Onouengue,Cuvette,Congo
CG030400008,-1.450274,16.573612,Oyongo,Cuvette,Congo
CG030400009,-1.437225,16.609448,Ngouene,Cuvette,Congo
CG030400010,-1.431665,16.670557,Katsoko,Cuvette,Congo
CG030400011,-1.443615,16.483887,Illanga Djongo,Cuvette,Congo
CG030400012,-1.434721,16.475003,Illanga-na Dzongo,Cuvette,Congo
CG030400013,-1.413889,16.588054,Dzikou,Cuvette,Congo
CG030400014,-1.374166,16.697778,Oyembe,Cuvette,Congo
CG030400015,-1.376948,16.610836,Bouma Ollembe,Cuvette,Congo
CG030400016,-1.341392,16.65972,Mboma-Ollembe,Cuvette,Congo
CG030400017,-1.327222,16.574725,Pouere-Essengue,Cuvette,Congo
CG030400018,-1.311667,16.698058,Eboua,Cuvette,Congo
CG030400019,-1.279723,16.756385,Okassa,Cuvette,Congo
CG030400020,-1.266111,16.759718,Boui,Cuvette,Congo
CG030400021,-1.256667,16.654166,Mbobo,Cuvette,Congo
CG030400022,-1.242498,16.776108,Boyaka,Cuvette,Congo
CG030400023,-1.243889,16.682497,Djabaka,Cuvette,Congo
CG030400024,-1.214164,16.794166,Djadaka,Cuvette,Congo
CG030400025,-1.214164,16.794166,Kogni-Kogni,Cuvette,Congo
CG030400026,-1.203608,16.798058,Ouandotanda,Cuvette,Congo
CG030400027,-1.199999,16.786385,Kenabouma,Cuvette,Congo
CG030400028,-1.190831,16.797223,Gouakandi,Cuvette,Congo
CG030400029,-1.187503,16.797499,Ngouakandi,Cuvette,Congo
CG030400030,-1.185837,16.814721,Ossanga,Cuvette,Congo
CG030400031,-1.190559,16.61,Odicango,Cuvette,Congo
CG030400032,-1.177501,16.770001,Pouere,Cuvette,Congo
CG030400033,-1.168887,16.875558,Obanga,Cuvette,Congo
CG030400034,-1.185835,16.584444,Banyanba,Cuvette,Congo
CG030400035,-1.178052,16.576667,Ekouele,Cuvette,Congo
CG030400036,-1.157774,16.820003,Lobomo,Cuvette,Congo
CG030400037,-1.156663,16.731948,Kenabouna,Cuvette,Congo
CG030400038,-1.156663,16.731948,Alebo,Cuvette,Congo
CG030400039,-1.14806,16.794447,Allebo,Cuvette,Congo
CG030400040,-1.149165,16.718611,Lokakoua,Cuvette,Congo
CG030400041,-1.149165,16.718611,Ibeke,Cuvette,Congo
CG030400042,-1.120003,16.945274,Boua,Cuvette,Congo
CG030400043,-1.118329,16.79167,Boganda,Cuvette,Congo
CG030400044,-1.112499,16.875279,Moyo,Cuvette,Congo
CG030400045,-1.126389,16.535559,Ibeke I,Cuvette,Congo
CG030400046,-1.126389,16.535559,Kouyou-Gandza,Cuvette,Congo
CG030400047,-1.090554,16.78417,Obanda,Cuvette,Congo
CG030400048,-1.081941,16.894718,Ohbanda,Cuvette,Congo
CG030400049,-1.094167,16.513888,Okondji,Cuvette,Congo
CG030400050,-1.072218,16.732501,Okondzi,Cuvette,Congo
CG030400051,-1.059721,16.779444,Yanana,Cuvette,Congo
CG030400052,-1.05,16.915558,Issami,Cuvette,Congo
CG030400053,-1.075837,16.43417,Abeya,Cuvette,Congo
CG030400054,-1.063892,16.486666,Oyomi,Cuvette,Congo
CG030400055,-1.034725,16.949998,Okouasse,Cuvette,Congo
CG030400056,-1.038329,16.757224,Okouassi,Cuvette,Congo
CG030400057,-1.027503,16.758889,Endeke,Cuvette,Congo
CG030400058,-1.042774,16.466942,Iko,Cuvette,Congo
CG030400059,-1.02944,16.453611,Onguida,Cuvette,Congo
CG030400060,-1.00583,16.441946,Onguido,Cuvette,Congo
CG030400061,-0.952779,16.762219,Onguinda,Cuvette,Congo
CG030400062,-0.934722,16.723615,Edikangoue,Cuvette,Congo
CG030400063,-0.88083,16.750002,Aba,Cuvette,Congo
CG030400064,-0.796945,16.689442,Otende,Cuvette,Congo
CG030400065,-0.7775,16.671943,Ottende,Cuvette,Congo
CG030400066,-0.758613,16.635004,Ibea,Cuvette,Congo
CG030400067,-0.668337,16.643614,Ekoli,Cuvette,Congo
CG030400068,-0.59083,16.626108,Ibongo,Cuvette,Congo
CG030400069,-0.555553,16.620555,Kouamou,Cuvette,Congo
CG030400070,-0.529719,16.638336,Ollende,Cuvette,Congo
CG030400071,-0.50833,16.642498,Ollende-Bouma,Cuvette,Congo
CG030400072,-0.505552,16.61278,Okoko,Cuvette,Congo
CG030400073,-0.505552,16.61278,Ossaki,Cuvette,Congo
CG030400074,-0.462219,16.633612,Ossounga,Cuvette,Congo
CG030400075,-0.445274,16.623052,Assala,Cuvette,Congo
CG030400076,-0.420275,16.541665,Assali,Cuvette,Congo
CG030400077,-0.325559,16.588058,Idenga,Cuvette,Congo
CG030400078,-0.304719,16.546111,Indanga,Cuvette,Congo
CG030400079,-0.247225,16.560279,Ekoungounou,Cuvette,Congo
CG030400080,-0.214164,16.529166,Ekoungouonu,Cuvette,Congo
CG030400081,-0.209447,16.48139,Ikongounou,Cuvette,Congo
CG030400082,0.116669,16.516671,Lingue Naoue,Cuvette,Congo
CG030400083,0.116669,16.516671,Linguenawe,Cuvette,Congo
CG030400084,0.133337,16.516663,Lingue-Ongoye,Cuvette,Congo
CG030500001,-0.826115,15.179726,Lingue-Ongoyo,Cuvette,Congo
CG030500002,-0.826115,15.179726,Ossambou,Cuvette,Congo
CG030500003,-0.817501,15.202779,Lingue-Ongali,Cuvette,Congo
CG030500004,-0.813609,15.225275,Elima,Cuvette,Congo
CG030500005,-0.802779,15.229723,Elima Otoko,Cuvette,Congo
CG030500006,-0.790556,15.240004,Otoko,Cuvette,Congo
CG030500007,-0.746947,15.254166,Eboundji,Cuvette,Congo
CG030500008,-0.743337,15.262218,Loussa,Cuvette,Congo
CG030500009,-0.715,15.287498,Baya,Cuvette,Congo
CG030500010,-0.693893,15.287775,Fort Pousset,Cuvette,Congo
CG030500011,-0.693893,15.287775,Fort-Rousset,Cuvette,Congo
CG030500012,-0.68583,15.306109,Ouando,Cuvette,Congo
CG030500013,-0.675,15.314448,Owando,Cuvette,Congo
CG030500014,-0.65667,15.334444,Kanguini,Cuvette,Congo
CG030500015,-0.65667,15.334444,Otsende,Cuvette,Congo
CG030500016,-0.65667,15.334444,Bimbe,Cuvette,Congo
CG030500017,-0.652777,15.363337,Mbimbe,Cuvette,Congo
CG030500018,-0.638608,15.387224,Makouma,Cuvette,Congo
CG030500019,-0.633336,15.183331,Okouma,Cuvette,Congo
CG030500020,-0.59833,15.384444,Olombo,Cuvette,Congo
CG030500021,-0.583329,15.398615,Bokangue,Cuvette,Congo
CG030500022,-0.549999,15.250004,Issemba,Cuvette,Congo
CG030500023,-0.549999,15.250004,Ango,Cuvette,Congo
CG030500024,-0.550003,15.133333,Amboangue,Cuvette,Congo
CG030500025,-0.516667,15.283335,Mba,Cuvette,Congo
CG030500026,-0.466667,15.199997,Ondaka,Cuvette,Congo
CG030500027,-0.448886,15.464166,Songo,Cuvette,Congo
CG030500028,-0.448886,15.464166,Issanga,Cuvette,Congo
CG030500029,-0.454442,15.251115,Ole,Cuvette,Congo
CG030500030,-0.447779,15.350554,Olle,Cuvette,Congo
CG030500031,-0.43333,15.366667,Allembe,Cuvette,Congo
CG030500032,-0.421667,15.388334,Saba,Cuvette,Congo
CG030500033,-0.421667,15.388334,Boma-Essengue,Cuvette,Congo
CG030600001,-0.065555,16.051948,Bomassingue,Cuvette,Congo
CG030600002,-0.065555,16.051948,Ambosso,Cuvette,Congo
CG030600003,-0.040553,16.02917,Ihimbou,Cuvette,Congo
CG030600004,-0.017782,16.386393,Bogo,Cuvette,Congo
CG030600005,-0.016663,16.000003,Boko,Cuvette,Congo
CG030600006,0,16.016671,Kekoumou,Cuvette,Congo
CG030600007,0.001393,16.361947,Asoko,Cuvette,Congo
CG030600008,0.001393,16.361947,Ombele,Cuvette,Congo
CG030600009,0.005002,16.390831,Endike,Cuvette,Congo
CG030600010,0.005002,16.390831,Indeke,Cuvette,Congo
CG030600011,0.016669,16.366664,Abala,Cuvette,Congo
CG030600012,0.016669,16.395278,Essi,Cuvette,Congo
CG030600013,0.016669,16.395278,Imbanda,Cuvette,Congo
CG030600014,0.016669,16.395278,Ipenda,Cuvette,Congo
CG030600015,0.017782,16.345282,Ossoue,Cuvette,Congo
CG030600016,0.026393,16.33389,Inganga,Cuvette,Congo
CG030600017,0.026393,16.33389,Ekouembe,Cuvette,Congo
CG030600018,0.026393,16.33389,Ikouembe,Cuvette,Congo
CG030600019,0.032221,16.028056,Mampoutou,Cuvette,Congo
CG030600020,0.032221,16.028056,La Mission,Cuvette,Congo
CG030600021,0.050004,16.1,Mbali,Cuvette,Congo
CG030600022,0.050004,16.116667,Omekingo,Cuvette,Congo
CG030600023,0.050004,16.133335,Mandjeli,Cuvette,Congo
CG030600024,0.1,16.083334,Moundjeli,Cuvette,Congo
CG030600025,0.100281,16.053332,Ingondo,Cuvette,Congo
CG030600026,0.100281,16.053332,Aboundji,Cuvette,Congo
CG030600027,0.115555,16.164442,Mokonda,Cuvette,Congo
CG030600028,0.150277,16.056947,Mokounda,Cuvette,Congo
CG030600029,0.182779,16.043893,Pangondamou,Cuvette,Congo
CG030600030,0.200002,16.050004,Okanda Penda,Cuvette,Congo
CG030700001,-0.905281,15.961108,Manga,Cuvette,Congo
CG030700002,-0.868336,16.184998,Djio,Cuvette,Congo
CG030700003,-0.868055,16.160556,Dzo,Cuvette,Congo
CG030700004,-0.833333,16.116668,Ilanda,Cuvette,Congo
CG030700005,-0.838886,15.948887,Eligossayo,Cuvette,Congo
CG030700006,-0.827503,16.099718,Elingossayo,Cuvette,Congo
CG030700007,-0.856663,15.51722,Apoto,Cuvette,Congo
CG030700008,-0.839168,15.826112,Issabi,Cuvette,Congo
CG030700009,-0.817781,16.188613,Mouengue,Cuvette,Congo
CG030700010,-0.817781,16.188613,Mangue,Cuvette,Congo
CG030700011,-0.825279,15.836669,Ilokolangoue,Cuvette,Congo
CG030700012,-0.813888,15.926388,Abouma,Cuvette,Congo
CG030700013,-0.801393,16.04806,Diki,Cuvette,Congo
CG030700014,-0.815837,15.624719,Sia,Cuvette,Congo
CG030700015,-0.786946,16.154997,Miongo,Cuvette,Congo
CG030700016,-0.786946,16.154997,Pamba I,Cuvette,Congo
CG030700017,-0.796115,15.913893,Penda,Cuvette,Congo
CG030700018,-0.790275,15.85361,Pamba,Cuvette,Congo
CG030700019,-0.798886,15.612503,Pambo,Cuvette,Congo
CG030700020,-0.778329,15.881385,Pamba II,Cuvette,Congo
CG030700021,-0.781945,15.755555,Ngouala,Cuvette,Congo
CG030700022,-0.781945,15.755555,Kiambi,Cuvette,Congo
CG030700023,-0.763332,16.034167,Mo,Cuvette,Congo
CG030700024,-0.779165,15.601114,Ekondjo,Cuvette,Congo
CG030700025,-0.783331,15.5,Ekondzo,Cuvette,Congo
CG030700026,-0.753892,16.017774,Nzakame,Cuvette,Congo
CG030700027,-0.763611,15.621108,Nzekeme,Cuvette,Congo
CG030700028,-0.763611,15.621108,Oudzima,Cuvette,Congo
CG030700029,-0.739442,15.951668,Ozema,Cuvette,Congo
CG030700030,-0.747224,15.64111,Djongo,Cuvette,Congo
CG030700031,-0.747224,15.64111,Dzongo,Cuvette,Congo
CG030700032,-0.736112,15.871671,Itoumba,Cuvette,Congo
CG030700033,-0.737225,15.820556,Aboko II,Cuvette,Congo
CG030700034,-0.754168,15.463059,Abo,Cuvette,Congo
CG030700035,-0.757497,15.368612,Aboko I,Cuvette,Congo
CG030700036,-0.757497,15.368612,Sainte Radegonde,Cuvette,Congo
CG030700037,-0.718331,16.063334,Tchambitcho,Cuvette,Congo
CG030700038,-0.725001,15.837224,Biala,Cuvette,Congo
CG030700039,-0.725001,15.837224,Binzou,Cuvette,Congo
CG030700040,-0.722498,15.86722,Ngouane,Cuvette,Congo
CG030700041,-0.715552,15.99167,N'Gouene,Cuvette,Congo
CG030700042,-0.728053,15.653608,Ilenga,Cuvette,Congo
CG030700043,-0.732497,15.404163,Edou,Cuvette,Congo
CG030700044,-0.683336,16.432501,Miaba,Cuvette,Congo
CG030700045,-0.716671,15.516663,Niaba,Cuvette,Congo
CG030700046,-0.716671,15.516663,Eloundji,Cuvette,Congo
CG030700047,-0.70556,15.673053,Ekongo,Cuvette,Congo
CG030700048,-0.70556,15.673053,Iboka,Cuvette,Congo
CG030700049,-0.67056,16.356946,Liboka,Cuvette,Congo
CG030700050,-0.687219,15.910276,Bara,Cuvette,Congo
CG030700051,-0.672501,16.122782,Bara I,Cuvette,Congo
CG030700052,-0.678615,15.916385,Apombo,Cuvette,Congo
CG030700053,-0.654725,16.381667,Bara II,Cuvette,Congo
CG030700054,-0.654725,16.381667,Andebe,Cuvette,Congo
CG030700055,-0.654719,16.232777,Opokania,Cuvette,Congo
CG030700056,-0.661391,16.006665,Douengue,Cuvette,Congo
CG030700057,-0.65389,16.183331,Loemba,Cuvette,Congo
CG030700058,-0.648608,16.218885,Mabirou,Cuvette,Congo
CG030700059,-0.655555,15.921386,Obomi,Cuvette,Congo
CG030700060,-0.655555,15.921386,Oboumi,Cuvette,Congo
CG030700061,-0.64194,16.184164,Kali Otoko,Cuvette,Congo
CG030700062,-0.665001,15.545281,Esanga,Cuvette,Congo
CG030700063,-0.665001,15.545281,Ikounda,Cuvette,Congo
CG030700064,-0.640837,16.101389,M'Bobo,Cuvette,Congo
CG030700065,-0.640837,16.101389,Liboko,Cuvette,Congo
CG030700066,-0.633337,16.266664,Dounengue,Cuvette,Congo
CG030700067,-0.639447,16.090004,Etoumba,Cuvette,Congo
CG030700068,-0.654997,15.676667,Ingouene,Cuvette,Congo
CG030700069,-0.639726,15.911669,Ongoueme,Cuvette,Congo
CG030700070,-0.643889,15.417502,Ekouango,Cuvette,Congo
CG030700071,-0.617501,16.051109,Ikouanga,Cuvette,Congo
CG030700072,-0.617501,16.051109,Ekounda,Cuvette,Congo
CG030700073,-0.611662,16.025004,Ingue,Cuvette,Congo
CG030700074,-0.619166,15.726664,Odouka,Cuvette,Congo
CG030700075,-0.597218,16.014722,Kouele,Cuvette,Congo
CG030700076,-0.60639,15.740834,Ekiesse,Cuvette,Congo
CG030700077,-0.60639,15.740834,Ngandja,Cuvette,Congo
CG030700078,-0.60639,15.740834,Okona,Cuvette,Congo
CG030700079,-0.609447,15.605559,Obele,Cuvette,Congo
CG030700080,-0.581392,15.990278,Olebe,Cuvette,Congo
CG030700081,-0.58472,15.889168,Okouniou,Cuvette,Congo
CG030700082,-0.58472,15.889168,Okana,Cuvette,Congo
CG030700083,-0.587224,15.783059,Okanyi,Cuvette,Congo
CG030700084,-0.579166,15.890003,Bene,Cuvette,Congo
CG030700085,-0.573337,16.012777,Tongo Moke,Cuvette,Congo
CG030700086,-0.573337,16.012777,Boyoko,Cuvette,Congo
CG030700087,-0.583331,15.583332,Opi,Cuvette,Congo
CG030700088,-0.583056,15.530552,Tongo,Cuvette,Congo
CG030700089,-0.583056,15.530552,Engouete,Cuvette,Congo
CG030700090,-0.576115,15.71556,Moake,Cuvette,Congo
CG030700091,-0.566665,15.883333,Esasaka,Cuvette,Congo
CG030700092,-0.566671,15.433331,Makongo,Cuvette,Congo
CG030700093,-0.545829,15.901113,Bokola,Cuvette,Congo
CG030700094,-0.545829,15.901113,Bomioko,Cuvette,Congo
CG030700095,-0.541947,15.962226,Tchono,Cuvette,Congo
CG030700096,-0.541947,15.962226,Idjalatchinge,Cuvette,Congo
CG030700097,-0.531671,15.96306,Obesi,Cuvette,Congo
CG030700098,-0.531671,15.96306,Obessi,Cuvette,Congo
CG030700099,-0.53472,15.610278,Otchetche,Cuvette,Congo
CG030700100,-0.53472,15.610278,Bokonko,Cuvette,Congo
CG030700101,-0.53472,15.610278,Tchekapika,Cuvette,Congo
CG030700102,-0.524171,15.91139,Tchikapika,Cuvette,Congo
CG030700103,-0.524171,15.91139,Bokombo,Cuvette,Congo
CG030700104,-0.521948,15.956113,Eboungou,Cuvette,Congo
CG030700105,-0.521948,15.956113,Ekongo I,Cuvette,Congo
CG030700106,-0.513885,15.97278,Abea,Cuvette,Congo
CG030700107,-0.512226,15.937502,Ekongo II,Cuvette,Congo
CG030700108,-0.516666,15.666667,Etoumbi,Cuvette,Congo
CG030700109,-0.497499,16.110275,Okangamwe,Cuvette,Congo
CG030700110,-0.497499,16.110275,Elonzi,Cuvette,Congo
CG030700111,-0.497499,16.110275,Kimengele,Cuvette,Congo
CG030700112,-0.518612,15.45167,Bonzonda,Cuvette,Congo
CG030700113,-0.499166,15.921109,Mwenbe,Cuvette,Congo
CG030700114,-0.48861,16.093336,Ilanga,Cuvette,Congo
CG030700115,-0.48861,16.093336,Lipounou,Cuvette,Congo
CG030700116,-0.486946,15.90806,Bonbokouta,Cuvette,Congo
CG030700117,-0.486946,15.90806,Bokwele,Cuvette,Congo
CG030700118,-0.486946,15.90806,Bokouele,Cuvette,Congo
CG030700119,-0.486946,15.90806,Iboko,Cuvette,Congo
CG030700120,-0.487501,15.882774,Obouala,Cuvette,Congo
CG030700121,-0.483335,15.983334,Oponga,Cuvette,Congo
CG030700122,-0.481943,15.915275,Otando,Cuvette,Congo
CG030700123,-0.479444,15.863615,Aboko,Cuvette,Congo
CG030700124,-0.479444,15.863615,Eoura,Cuvette,Congo
CG030700125,-0.473891,15.853055,Ossa,Cuvette,Congo
CG030700126,-0.473891,15.853055,Onnzelo,Cuvette,Congo
CG030700127,-0.466666,15.966663,Tsama I,Cuvette,Congo
CG030700128,-0.469721,15.843053,Tsama II,Cuvette,Congo
CG030700129,-0.467496,15.915282,Ngoua,Cuvette,Congo
CG030700130,-0.468609,15.836943,Omboye,Cuvette,Congo
CG030700131,-0.466392,15.84556,Omboyi,Cuvette,Congo
CG030700132,-0.456941,15.825556,Ossele,Cuvette,Congo
CG030700133,-0.455829,15.820002,Nkana,Cuvette,Congo
CG030700134,-0.453612,15.823893,Leoia,Cuvette,Congo
CG030700135,-0.453612,15.823893,Lessia,Cuvette,Congo
CG030700136,-0.435277,15.963891,Oouando,Cuvette,Congo
CG030700137,-0.438615,15.804446,Engobe,Cuvette,Congo
CG030700138,-0.438615,15.804446,Engoube,Cuvette,Congo
CG030700139,-0.444999,15.538054,Oboko II,Cuvette,Congo
CG030700140,-0.439996,15.548055,Obougou,Cuvette,Congo
CG030700141,-0.434168,15.67667,Opounga,Cuvette,Congo
CG030700142,-0.434168,15.67667,Okouba,Cuvette,Congo
CG030700143,-0.426389,15.925278,Ambomi,Cuvette,Congo
CG030700144,-0.431669,15.599997,Amboumi,Cuvette,Congo
CG030700145,-0.430281,15.646385,Omtchouomo,Cuvette,Congo
CG030700146,-0.430281,15.646385,Koui,Cuvette,Congo
CG030700147,-0.424168,15.712219,Kouomi,Cuvette,Congo
CG030700148,-0.423052,15.747499,Oloua,Cuvette,Congo
CG030700149,-0.423052,15.747499,Akomou,Cuvette,Congo
CG030700150,-0.418891,15.747777,Ololi,Cuvette,Congo
CG030700151,-0.416671,15.783335,Ololi I,Cuvette,Congo
CG030700152,-0.416671,15.783335,Oloti,Cuvette,Congo
CG030700153,-0.412779,15.883331,Katara,Cuvette,Congo
CG030700154,-0.426388,15.203609,Akana II,Cuvette,Congo
CG030700155,-0.426388,15.203609,Ancien Otala,Cuvette,Congo
CG030700156,-0.420833,15.200275,Mvouma,Cuvette,Congo
CG030700157,-0.406391,15.472503,M'Vouma,Cuvette,Congo
CG030700158,-0.380281,15.83306,Mvouoma,Cuvette,Congo
CG030700159,-0.380281,15.83306,Akana,Cuvette,Congo
CG030700160,-0.390002,15.394722,Akana I,Cuvette,Congo
CG030700161,-0.368054,15.800835,Mboli-Yandza,Cuvette,Congo
CG030700162,-0.366391,15.785559,M'Bouila-Yandzo,Cuvette,Congo
CG030700163,-0.366391,15.785559,Mbouli-Yandzo,Cuvette,Congo
CG030700164,-0.366666,15.733331,Chere,Cuvette,Congo
CG030700165,-0.363333,15.780553,Tchere,Cuvette,Congo
CG030700166,-0.3625,15.787221,Tcherre,Cuvette,Congo
CG030700167,-0.359443,15.781389,Ekouya,Cuvette,Congo
CG030700168,-0.355554,15.773885,Obako,Cuvette,Congo
CG030700169,-0.352496,15.778333,Alieni,Cuvette,Congo
CG030700170,-0.352496,15.778333,Alieni II,Cuvette,Congo
CG030700171,-0.349999,15.783329,Allieni,Cuvette,Congo
CG030700172,-0.340274,16.063332,Kongho,Cuvette,Congo
CG030700173,-0.341944,15.575,Alieni I,Cuvette,Congo
CG030700174,-0.334167,15.893055,Ombeke,Cuvette,Congo
CG030700175,-0.334167,15.893055,Olouma,Cuvette,Congo
CG030700176,-0.331665,15.843336,Douka,Cuvette,Congo
CG030700177,-0.330835,15.81778,Palmeraie,Cuvette,Congo
CG030700178,-0.323331,16.068614,Palabaka,Cuvette,Congo
CG030700179,-0.327496,15.827224,Oundjadoumou,Cuvette,Congo
CG030700180,-0.325556,15.77444,Oka,Cuvette,Congo
CG030700181,-0.318052,16.027496,Nkori,Cuvette,Congo
CG030700182,-0.318052,16.027496,Pori,Cuvette,Congo
CG030700183,-0.326392,15.586663,Obana,Cuvette,Congo
CG030700184,-0.319171,15.863607,Vaga,Cuvette,Congo
CG030700185,-0.319171,15.863607,Ancien Bibaya,Cuvette,Congo
CG030700186,-0.316668,15.933336,Kebouya,Cuvette,Congo
CG030700187,-0.320837,15.723614,Ndjo,Cuvette,Congo
CG030700188,-0.318889,15.762775,Ambimi,Cuvette,Congo
CG030700189,-0.316113,15.754445,Imbimi,Cuvette,Congo
CG030700190,-0.314446,15.656387,Ombala,Cuvette,Congo
CG030700191,-0.304169,16.093609,Lecouna,Cuvette,Congo
CG030700192,-0.30583,15.71194,Lebili,Cuvette,Congo
CG030700193,-0.30111,15.796948,Okounda,Cuvette,Congo
CG030700194,-0.302222,15.681386,Louomi,Cuvette,Congo
CG030700195,-0.295277,16.002496,Ebili,Cuvette,Congo
CG030700196,-0.292226,15.502503,Oboua,Cuvette,Congo
CG030700197,-0.281387,16.049444,Ououa,Cuvette,Congo
CG030700198,-0.279444,16.03194,Leboko,Cuvette,Congo
CG030700199,-0.281946,15.85806,Lemvouri,Cuvette,Congo
CG030700200,-0.281107,15.82917,Sere,Cuvette,Congo
CG030700201,-0.27833,15.820004,Opigui,Cuvette,Congo
CG030700202,-0.27833,15.820004,Ongia,Cuvette,Congo
CG030700203,-0.276392,15.850277,Onguia,Cuvette,Congo
CG030700204,-0.282781,15.489724,Alieme,Cuvette,Congo
CG030700205,-0.265557,15.939442,Bibaya,Cuvette,Congo
CG030700206,-0.243053,15.906948,Akou,Cuvette,Congo
CG030700207,-0.237223,15.968059,Abalaga,Cuvette,Congo
CG030700208,-0.228053,15.922502,Abalaka,Cuvette,Congo
CG030700209,-0.228053,15.922502,Onguia-Endeli,Cuvette,Congo
CG030700210,-0.223888,15.98,Ilokoyo,Cuvette,Congo
CG030700211,-0.14194,15.996385,Youlokoyo,Cuvette,Congo
CG030700212,-0.14194,15.996385,Kami,Cuvette,Congo
CG030700213,-0.137777,16.041941,Mouyougou,Cuvette,Congo
CG030700214,-0.137777,16.041941,Eti,Cuvette,Congo
CG030700215,-0.132774,16.047781,Okogo,Cuvette,Congo
CG030700216,-0.132774,16.047781,Campement Yama,Cuvette,Congo
CG030800001,-1.202501,16.093329,Oudji,Cuvette,Congo
CG030800002,-1.194997,16.060829,Ete,Cuvette,Congo
CG030800003,-1.185558,16.047498,Mbouli,Cuvette,Congo
CG030800004,-1.185558,16.047498,Okongo,Cuvette,Congo
CG030800005,-1.182221,16.020553,Kouyou,Cuvette,Congo
CG030800006,-1.176943,16.007223,Andouma,Cuvette,Congo
CG030800007,-1.168613,16.003337,Ondouna,Cuvette,Congo
CG030800008,-1.164998,15.970002,Abeke,Cuvette,Congo
CG030800009,-1.141111,15.958329,Mbou,Cuvette,Congo
CG030800010,-1.131944,15.968059,Yama,Cuvette,Congo
CG030800011,-1.131944,15.968059,Ebou,Cuvette,Congo
CG030800012,-1.116941,15.955831,Lekori,Cuvette,Congo
CG030800013,-1.116941,15.955831,Akalamba,Cuvette,Congo
CG030800014,-1.114442,15.962499,Ankalaba,Cuvette,Congo
CG030800015,-1.092776,15.965557,Mpalaka,Cuvette,Congo
CG030800016,-1.084167,16.065003,Ollou,Cuvette,Congo
CG030800017,-1.084167,16.065003,Olou,Cuvette,Congo
CG030800018,-1.086388,16.023611,Ketougou,Cuvette,Congo
CG030800019,-1.082222,16.040001,Ndoumbi,Cuvette,Congo
CG030800020,-1.072782,16.104442,Kenvani,Cuvette,Congo
CG030800021,-1.072782,16.104442,Kenvouani,Cuvette,Congo
CG030800022,-1.08472,15.923611,Otari,Cuvette,Congo
CG030800023,-1.08472,15.923611,Djouama,Cuvette,Congo
CG030800024,-1.063055,16.114998,Olloua,Cuvette,Congo
CG030800025,-1.075,15.909445,Koumeya,Cuvette,Congo
CG030800026,-1.064445,15.962223,Ayandza,Cuvette,Congo
CG030800027,-1.06139,15.893336,Boulou,Cuvette,Congo
CG030800028,-1.030829,15.964998,Mpagui,Cuvette,Congo
CG030800029,-1.04167,15.792224,Kenvouomo,Cuvette,Congo
CG030800030,-1.04028,15.776666,Yaba,Cuvette,Congo
CG030800031,-1.031114,15.854997,Yaba II,Cuvette,Congo
CG030800032,-1.031114,15.854997,Mpouya,Cuvette,Congo
CG030800033,-0.997775,16.13444,Mboumou,Cuvette,Congo
CG030800034,-1.005837,15.96056,Mbouomo,Cuvette,Congo
CG030800035,-1.011107,15.733888,Oboko,Cuvette,Congo
CG030800036,-1.003333,15.820281,Yaba I,Cuvette,Congo
CG030800037,-0.983057,16.110001,Eouo,Cuvette,Congo
CG030800038,-0.992774,15.792499,Ewo,Cuvette,Congo
CG030800039,-0.992774,15.792499,Kebili,Cuvette,Congo
CG030800040,-0.992774,15.792499,Ekeri,Cuvette,Congo
CG030800041,-0.966668,16.133333,Obemba,Cuvette,Congo
CG030800042,-0.966668,16.133333,Obimba,Cuvette,Congo
CG030800043,-0.973053,15.964164,Obili,Cuvette,Congo
CG030800044,-0.947774,16.070279,Ngayi,Cuvette,Congo
CG030800045,-0.947774,16.070279,N'Gayi,Cuvette,Congo
CG030800046,-0.971393,15.538609,Bia,Cuvette,Congo
CG030800047,-0.971393,15.538609,Ovounigui,Cuvette,Congo
CG030800048,-0.95722,15.756389,Oyou-Gamboma,Cuvette,Congo
CG030800049,-0.95722,15.756389,Ngami Ompaye,Cuvette,Congo
CG030800050,-0.937774,16.053893,Kebouli,Cuvette,Congo
CG030800051,-0.937774,16.053893,Letoumbou,Cuvette,Congo
CG030800052,-0.933337,16.100001,Aleme,Cuvette,Congo
CG030800053,-0.946386,15.740003,Alleme,Cuvette,Congo
CG030800054,-0.943607,15.66167,Malie,Cuvette,Congo
CG030800055,-0.936392,15.638885,Mina,Cuvette,Congo
CG030800056,-0.925275,15.723615,Doubandjo,Cuvette,Congo
CG030800057,-0.930555,15.598612,Omouandja,Cuvette,Congo
CG030800058,-0.920557,15.700553,Ntchouo,Cuvette,Congo
CG030800059,-0.919725,15.653613,Ekey,Cuvette,Congo
CG030800060,-0.914443,15.693893,Ekeyi,Cuvette,Congo
CG030800061,-0.911387,15.583609,Kessala,Cuvette,Congo
CG030800062,-0.911387,15.583609,Yaba Mbeti,Cuvette,Congo
CG030800063,-0.904996,15.660279,Obeli,Cuvette,Congo
CG030800064,-0.904996,15.660279,Oboli,Cuvette,Congo
CG030800065,-0.882218,16.043885,Oyabi,Cuvette,Congo
CG030800066,-0.899997,15.640002,Odia,Cuvette,Congo
CG030800067,-0.889163,15.494998,Oboko I,Cuvette,Congo
CG030800068,-0.889163,15.494998,Kabaniama,Cuvette,Congo
CG030900001,-1.495835,16.403893,Kabaniama II,Cuvette,Congo
CG030900002,-1.452219,16.319999,Nguima,Cuvette,Congo
CG030900003,-1.430837,16.320004,Yembelangoye,Cuvette,Congo
CG030900004,-1.410553,16.375829,N'Goemouma,Cuvette,Congo
CG030900005,-1.391392,16.428057,Ngoyboma,Cuvette,Congo
CG030900006,-1.388613,16.308333,Ngoemouma,Cuvette,Congo
CG030900007,-1.372781,16.393888,Ndouba,Cuvette,Congo
CG030900008,-1.368614,16.388332,Kabaniama I,Cuvette,Congo
CG030900009,-1.361111,16.36667,Obondo,Cuvette,Congo
CG030900010,-1.364445,16.308608,Antchoko,Cuvette,Congo
CG030900011,-1.335554,16.542777,Antsoukou,Cuvette,Congo
CG030900012,-1.315004,16.517218,Akananga,Cuvette,Congo
CG030900013,-1.310831,16.493887,Ontchouomo,Cuvette,Congo
CG030900014,-1.29528,16.438614,Akombo,Cuvette,Congo
CG030900015,-1.305552,16.293335,Etaba,Cuvette,Congo
CG030900016,-1.305552,16.293335,Etaba II,Cuvette,Congo
CG030900017,-1.29694,16.259442,Mfoumou,Cuvette,Congo
CG030900018,-1.284718,16.265556,Mfouomo,Cuvette,Congo
CG030900019,-1.269169,16.228612,Eba-aja,Cuvette,Congo
CG030900020,-1.244996,16.465832,Oyabi-Boula,Cuvette,Congo
CG030900021,-1.264443,16.180278,Odoumina,Cuvette,Congo
CG030900022,-1.264443,16.180278,Odoumouna,Cuvette,Congo
CG030900023,-1.224725,16.469999,Etaba I,Cuvette,Congo
CG030900024,-1.221393,16.302774,Onienga,Cuvette,Congo
CG030900025,-1.221393,16.144725,Orienga,Cuvette,Congo
CG030900026,-1.223059,16.09944,Ndjounou,Cuvette,Congo
CG030900027,-1.214721,16.199722,Kelle,Cuvette,Congo
CG030900028,-1.190833,16.476666,Kelli,Cuvette,Congo
CG030900029,-1.215829,16.126389,Mbomobakota,Cuvette,Congo
CG030900030,-1.189445,16.466943,Andjoko,Cuvette,Congo
CG030900031,-1.191386,16.216391,Andzoko,Cuvette,Congo
CG030900032,-1.18056,16.331107,Lossy,Cuvette,Congo
CG030900033,-1.164997,16.470003,Akamou,Cuvette,Congo
CG030900034,-1.148891,16.218332,Lebay,Cuvette,Congo
CG030900035,-1.132504,16.428329,Lebaye,Cuvette,Congo
CG030900036,-1.109725,16.194726,Lebayi,Cuvette,Congo
CG030900037,-1.098611,16.232779,Akamo,Cuvette,Congo
CG030900038,-1.075276,16.33583,Amo,Cuvette,Congo
CG030900039,-1.069166,16.241942,Bela,Cuvette,Congo
CG030900040,-1.036663,16.317501,Ntsiami,Cuvette,Congo
CG030900041,-1.030001,16.30694,Onchouondjoko,Cuvette,Congo
CG030900042,-1.027501,16.315556,Ontchouandjoko,Cuvette,Congo
CG030900043,-1.027501,16.315556,Otsouandjoko,Cuvette,Congo
CG030900044,-1.024998,16.242499,Opounda,Cuvette,Congo
CG030900045,-1.023335,16.216385,Entsiami,Cuvette,Congo
CG030900046,-1.008334,16.294998,Ongounda,Cuvette,Congo
CG030900047,-0.996945,16.299441,Abolo I,Cuvette,Congo
CG030900048,-0.984166,16.295276,Abolo II,Cuvette,Congo
CG030900049,-0.963612,16.281942,Yembelangoy,Cuvette,Congo
CG030900050,-0.923337,16.248608,Ntsoukou,Cuvette,Congo
CG030900051,-0.915833,16.266667,Ngoyeboma,Cuvette,Congo
CG030900052,-0.9125,16.225835,Ngoyebouma,Cuvette,Congo
CG040100001,-0.530276,14.580835,Ndemba,Cuvette-Ouest,Congo
CG040100002,-0.530276,14.580835,Okanabota,Cuvette-Ouest,Congo
CG040100003,-0.530276,14.580835,Owogui,Cuvette-Ouest,Congo
CG040100004,-0.513891,14.579722,Ekeye,Cuvette-Ouest,Congo
CG040100005,-0.513891,14.579722,Enkeya,Cuvette-Ouest,Congo
CG040100006,-0.513891,14.579722,Elounga,Cuvette-Ouest,Congo
CG040100007,-0.49278,14.516115,Olonga,Cuvette-Ouest,Congo
CG040100008,-0.479721,14.452777,Nina,Cuvette-Ouest,Congo
CG040100009,-0.479721,14.452777,Endouo,Cuvette-Ouest,Congo
CG040100010,-0.466667,14.466663,Kerikeri,Cuvette-Ouest,Congo
CG040100011,-0.460555,14.50944,Ambela,Cuvette-Ouest,Congo
CG040100012,-0.456942,14.60833,Anbela,Cuvette-Ouest,Congo
CG040100013,-0.456942,14.60833,Oka-Bambou,Cuvette-Ouest,Congo
CG040100014,-0.446113,14.620553,Akoua,Cuvette-Ouest,Congo
CG040100015,-0.436388,14.639722,Endigui,Cuvette-Ouest,Congo
CG040100016,-0.436388,14.639722,Okoba,Cuvette-Ouest,Congo
CG040100017,-0.432777,14.466944,Mbama,Cuvette-Ouest,Congo
CG040100018,-0.425004,14.431663,Beye-Mboulou,Cuvette-Ouest,Congo
CG040100019,-0.425004,14.431663,Mbeyi-Mbola,Cuvette-Ouest,Congo
CG040100020,-0.416668,14.516668,Andjoko II,Cuvette-Ouest,Congo
CG040100021,-0.401114,14.651667,Ediki,Cuvette-Ouest,Congo
CG040100022,-0.401114,14.651667,Ekosso,Cuvette-Ouest,Congo
CG040100023,-0.358891,14.65778,Enkosso,Cuvette-Ouest,Congo
CG040100024,-0.319446,14.659165,Talas,Cuvette-Ouest,Congo
CG040100025,-0.319446,14.659165,Opari,Cuvette-Ouest,Congo
CG040100026,-0.300003,14.633329,Essoura,Cuvette-Ouest,Congo
CG040100027,-0.273052,14.65639,Essouta,Cuvette-Ouest,Congo
CG040100028,-0.250001,14.683333,Olloli,Cuvette-Ouest,Congo
CG040100029,-0.25,14.650001,Abvoura,Cuvette-Ouest,Congo
CG040100030,-0.23917,14.655834,Doulou,Cuvette-Ouest,Congo
CG040100031,-0.231109,14.64833,Kempaka,Cuvette-Ouest,Congo
CG040100032,-0.218615,14.64833,Korogo II,Cuvette-Ouest,Congo
CG040100033,-0.218615,14.64833,Okalataka,Cuvette-Ouest,Congo
CG040100034,-0.218615,14.64833,Okelataka,Cuvette-Ouest,Congo
CG040100035,-0.180003,14.700004,Korogo,Cuvette-Ouest,Congo
CG040100036,-0.16306,14.918607,Korogo I,Cuvette-Ouest,Congo
CG040100037,-0.1525,14.741946,Okeka,Cuvette-Ouest,Congo
CG040100038,-0.1525,14.741946,Okela,Cuvette-Ouest,Congo
CG040100039,-0.14528,14.75361,Ngoma,Cuvette-Ouest,Congo
CG040100040,-0.14528,14.75361,Mboli-Ebaka,Cuvette-Ouest,Congo
CG040100041,-0.14528,14.75361,Mbouli-Paka,Cuvette-Ouest,Congo
CG040100042,-0.124998,14.911669,Ebana,Cuvette-Ouest,Congo
CG040100043,-0.124998,14.911669,Papaye,Cuvette-Ouest,Congo
CG040100044,-0.095558,14.913053,Mbende,Cuvette-Ouest,Congo
CG040100045,-0.095558,14.913053,Ekombebana,Cuvette-Ouest,Congo
CG040100046,-0.095558,14.913053,Lossi,Cuvette-Ouest,Congo
CG040100047,-0.09278,14.910276,Bende,Cuvette-Ouest,Congo
CG040100048,-0.088337,14.768052,Ngele,Cuvette-Ouest,Congo
CG040100049,-0.088337,14.768052,Nguele,Cuvette-Ouest,Congo
CG040100050,-0.088337,14.768052,Villages Nghele,Cuvette-Ouest,Congo
CG040100051,-0.063611,14.786664,Lengui-Lengui,Cuvette-Ouest,Congo
CG040100052,-0.058336,14.744723,Diba,Cuvette-Ouest,Congo
CG040100053,-0.044169,14.735278,Ndiba,Cuvette-Ouest,Congo
CG040100054,-0.042224,14.798886,Makamou,Cuvette-Ouest,Congo
CG040100055,-0.031666,14.914725,Akoualebango,Cuvette-Ouest,Congo
CG040100056,-0.030833,14.674996,Botechiami,Cuvette-Ouest,Congo
CG040100057,-0.030833,14.674996,Njoundou II,Cuvette-Ouest,Congo
CG040100058,-0.030833,14.674996,Bangui-Sale,Cuvette-Ouest,Congo
CG040100059,-0.02611,14.815278,Ondjouba,Cuvette-Ouest,Congo
CG040100060,-0.023885,14.704167,Poto-Poto,Cuvette-Ouest,Congo
CG040100061,-0.021668,14.834446,Lebanga,Cuvette-Ouest,Congo
CG040100062,-0.019171,14.851665,Lembo,Cuvette-Ouest,Congo
CG040100063,-0.008613,14.867778,Essoukou,Cuvette-Ouest,Congo
CG040100064,0.006387,14.939169,Issoko,Cuvette-Ouest,Congo
CG040100065,0.00722,14.944165,Ndzanga,Cuvette-Ouest,Congo
CG040100066,0.028888,14.905558,Akongo,Cuvette-Ouest,Congo
CG040100067,0.047218,14.890829,Bondjodjouala,Cuvette-Ouest,Congo
CG040100068,0.047218,14.890829,Ambende,Cuvette-Ouest,Congo
CG040100069,0.053886,14.889166,Djanga,Cuvette-Ouest,Congo
CG040100070,0.064996,14.88222,Ombo,Cuvette-Ouest,Congo
CG040200001,-1.271668,14.609721,Lengue-lengue,Cuvette-Ouest,Congo
CG040200002,-1.271668,14.609721,Ekaka,Cuvette-Ouest,Congo
CG040200003,-1.204167,14.766114,Ebonga,Cuvette-Ouest,Congo
CG040200004,-1.192223,14.746943,Bossouaka,Cuvette-Ouest,Congo
CG040200005,-1.197778,14.591108,Keba,Cuvette-Ouest,Congo
CG040200006,-1.186945,14.709721,Mbemba,Cuvette-Ouest,Congo
CG040200007,-1.179719,14.58889,Mekakala,Cuvette-Ouest,Congo
CG040200008,-1.151386,14.941107,Kekele,Cuvette-Ouest,Congo
CG040200009,-1.183886,14.506385,Mangome,Cuvette-Ouest,Congo
CG040200010,-1.118056,14.922223,Zalangoy,Cuvette-Ouest,Congo
CG040200011,-1.118056,14.922223,Oleme,Cuvette-Ouest,Congo
CG040200012,-1.106665,14.916668,Olleme,Cuvette-Ouest,Congo
CG040200013,-1.126107,14.593886,Libonga,Cuvette-Ouest,Congo
CG040200014,-1.122781,14.552226,Ganga-boungui,Cuvette-Ouest,Congo
CG040200015,-1.09361,14.912777,Ganguebongui,Cuvette-Ouest,Congo
CG040200016,-1.105555,14.610553,Moualokali,Cuvette-Ouest,Congo
CG040200017,-1.081387,14.911941,Dzala,Cuvette-Ouest,Congo
CG040200018,-1.106668,14.548607,Opunga,Cuvette-Ouest,Congo
CG040200019,-1.110836,14.479443,Bendza,Cuvette-Ouest,Congo
CG040200020,-1.076392,14.908058,Engonda,Cuvette-Ouest,Congo
CG040200021,-1.076112,14.894163,Lekoli,Cuvette-Ouest,Congo
CG040200022,-1.076112,14.894163,Bomadjokou,Cuvette-Ouest,Congo
CG040200023,-1.076112,14.894163,Bomandjokou,Cuvette-Ouest,Congo
CG040200024,-1.069163,14.891107,Bomandzokou,Cuvette-Ouest,Congo
CG040200025,-1.069163,14.891107,Boumandjokou,Cuvette-Ouest,Congo
CG040200026,-1.073889,14.678885,Ilembou,Cuvette-Ouest,Congo
CG040200027,-1.07639,14.637503,Tolo,Cuvette-Ouest,Congo
CG040200028,-1.05694,14.884168,Mbendza,Cuvette-Ouest,Congo
CG040200029,-1.071663,14.675002,Kongo,Cuvette-Ouest,Congo
CG040200030,-1.063892,14.685277,Koungou,Cuvette-Ouest,Congo
CG040200031,-1.063892,14.685277,Edibabandza,Cuvette-Ouest,Congo
CG040200032,-1.06333,14.668613,Edibabanza,Cuvette-Ouest,Congo
CG040200033,-1.048336,14.875001,Bembe,Cuvette-Ouest,Congo
CG040200034,-1.06917,14.562777,Gite,Cuvette-Ouest,Congo
CG040200035,-1.041107,14.871388,Douma,Cuvette-Ouest,Congo
CG040200036,-1.034719,14.866948,Douma I,Cuvette-Ouest,Congo
CG040200037,-1.038887,14.800831,Olele,Cuvette-Ouest,Congo
CG040200038,-1.033055,14.874165,Djokossiba,Cuvette-Ouest,Congo
CG040200039,-1.038054,14.691948,Ndjokesseba,Cuvette-Ouest,Congo
CG040200040,-1.038054,14.691948,Bandza,Cuvette-Ouest,Congo
CG040200041,-1.021112,14.870004,Eyoka,Cuvette-Ouest,Congo
CG040200042,-1.021112,14.870004,Douma II,Cuvette-Ouest,Congo
CG040200043,-1.030835,14.693612,Makebe,Cuvette-Ouest,Congo
CG040200044,-1.030835,14.693612,Mandzala,Cuvette-Ouest,Congo
CG040200045,-1.012219,14.862221,Mandavasoukou,Cuvette-Ouest,Congo
CG040200046,-1.005831,14.861107,Mandevasoukou,Cuvette-Ouest,Congo
CG040200047,-1.002501,14.707501,Mandouasoukou,Cuvette-Ouest,Congo
CG040200048,-1.00417,14.663613,Mondomassoko I,Cuvette-Ouest,Congo
CG040200049,-1.015276,14.497497,Mondomassokou,Cuvette-Ouest,Congo
CG040200050,-0.984164,14.731393,Dzandza,Cuvette-Ouest,Congo
CG040200051,-0.984164,14.731393,Tombi,Cuvette-Ouest,Congo
CG040200052,-0.988056,14.653889,Toumbi,Cuvette-Ouest,Congo
CG040200053,-0.988056,14.653889,Linkouala,Cuvette-Ouest,Congo
CG040200054,-0.970275,14.84972,Akara,Cuvette-Ouest,Congo
CG040200055,-0.983334,14.583335,Dziele,Cuvette-Ouest,Congo
CG040200056,-0.96361,14.750557,Okolo,Cuvette-Ouest,Congo
CG040200057,-0.955274,14.847222,Mfagui,Cuvette-Ouest,Congo
CG040200058,-0.955274,14.847222,Asiene,Cuvette-Ouest,Congo
CG040200059,-0.966665,14.550002,Assiene,Cuvette-Ouest,Congo
CG040200060,-0.934167,14.835,Assiene I,Cuvette-Ouest,Congo
CG040200061,-0.941669,14.629726,Obia,Cuvette-Ouest,Congo
CG040200062,-0.931945,14.756671,Leketi,Cuvette-Ouest,Congo
CG040200063,-0.921944,14.834443,Lekety,Cuvette-Ouest,Congo
CG040200064,-0.903607,15.114442,Lekita,Cuvette-Ouest,Congo
CG040200065,-0.911668,14.898886,Ayina,Cuvette-Ouest,Congo
CG040200066,-0.911668,14.898886,Ayari,Cuvette-Ouest,Congo
CG040200067,-0.925829,14.646112,Essa,Cuvette-Ouest,Congo
CG040200068,-0.925274,14.613055,Akele,Cuvette-Ouest,Congo
CG040200069,-0.92083,14.601111,Nkoua,Cuvette-Ouest,Congo
CG040200070,-0.904166,14.847225,Mbie,Cuvette-Ouest,Congo
CG040200071,-0.904166,14.847225,Ambomo,Cuvette-Ouest,Congo
CG040200072,-0.91972,14.543887,Leyomi,Cuvette-Ouest,Congo
CG040200073,-0.895836,14.922777,Empoura,Cuvette-Ouest,Congo
CG040200074,-0.895836,14.922777,Akaymbala,Cuvette-Ouest,Congo
CG040200075,-0.896115,14.850559,Akabandele,Cuvette-Ouest,Congo
CG040200076,-0.896115,14.850559,Ongali,Cuvette-Ouest,Congo
CG040200077,-0.902501,14.69028,Kandobo,Cuvette-Ouest,Congo
CG040200078,-0.894719,14.798889,Amina,Cuvette-Ouest,Congo
CG040200079,-0.876665,15.085833,Ayali,Cuvette-Ouest,Congo
CG040200080,-0.883614,14.936393,Edjouga,Cuvette-Ouest,Congo
CG040200081,-0.904723,14.567499,Edzouga,Cuvette-Ouest,Congo
CG040200082,-0.904723,14.567499,Puri,Cuvette-Ouest,Congo
CG040200083,-0.873607,15.077502,Okamandibe,Cuvette-Ouest,Congo
CG040200084,-0.879724,14.966386,Odzia,Cuvette-Ouest,Congo
CG040200085,-0.904718,14.530003,Dzogo II,Cuvette-Ouest,Congo
CG040200086,-0.891946,14.736388,Ndzongo,Cuvette-Ouest,Congo
CG040200087,-0.873608,15.016663,N'Dzongo,Cuvette-Ouest,Congo
CG040200088,-0.871943,15.021948,Bogi,Cuvette-Ouest,Congo
CG040200089,-0.873056,15.000836,Bogui,Cuvette-Ouest,Congo
CG040200090,-0.873337,14.99139,Kantse,Cuvette-Ouest,Congo
CG040200091,-0.883609,14.804165,Bouligi,Cuvette-Ouest,Congo
CG040200092,-0.869446,15.02806,Boulingui,Cuvette-Ouest,Congo
CG040200093,-0.869446,15.02806,Koyo,Cuvette-Ouest,Congo
CG040200094,-0.884168,14.766389,Okoyo,Cuvette-Ouest,Congo
CG040200095,-0.865555,15.065835,Lekoupe,Cuvette-Ouest,Congo
CG040200096,-0.883335,14.752782,Ontolo,Cuvette-Ouest,Congo
CG040200097,-0.869998,14.976668,Olieme,Cuvette-Ouest,Congo
CG040200098,-0.8725,14.820559,Oliemi,Cuvette-Ouest,Congo
CG040200099,-0.8725,14.820559,Dzogo I,Cuvette-Ouest,Congo
CG040200100,-0.88528,14.488052,Ntsiri,Cuvette-Ouest,Congo
CG040200101,-0.862503,14.821944,N'Tsiri,Cuvette-Ouest,Congo
CG040200102,-0.846945,15.068612,Mbouma,Cuvette-Ouest,Congo
CG040200103,-0.846945,15.068612,M'Bouma,Cuvette-Ouest,Congo
CG040200104,-0.863053,14.784726,Nkomo,Cuvette-Ouest,Congo
CG040200105,-0.87306,14.506388,N'Komo,Cuvette-Ouest,Congo
CG040200106,-0.833608,15.113335,Omvoula,Cuvette-Ouest,Congo
CG040200107,-0.836945,14.842221,Okele,Cuvette-Ouest,Congo
CG040200108,-0.823612,15.049163,Kenstsele,Cuvette-Ouest,Congo
CG040200109,-0.823612,15.049163,Kentsele,Cuvette-Ouest,Congo
CG040200110,-0.8375,14.727782,Ossegue,Cuvette-Ouest,Congo
CG040200111,-0.8375,14.727782,Engali,Cuvette-Ouest,Congo
CG040200112,-0.845836,14.569996,Kevou,Cuvette-Ouest,Congo
CG040200113,-0.821393,14.840002,Kevougou,Cuvette-Ouest,Congo
CG040200114,-0.823336,14.791388,Ngoumbi,Cuvette-Ouest,Congo
CG040200115,-0.829168,14.626115,N'Goumbi,Cuvette-Ouest,Congo
CG040200116,-0.829168,14.626115,Lecori,Cuvette-Ouest,Congo
CG040200117,-0.824999,14.644171,Olebi,Cuvette-Ouest,Congo
CG040200118,-0.804167,14.836947,Ollebi,Cuvette-Ouest,Congo
CG040200119,-0.798052,14.860836,Ollibi,Cuvette-Ouest,Congo
CG040200120,-0.798052,14.860836,Djoko,Cuvette-Ouest,Congo
CG040200121,-0.788331,14.774996,Kele,Cuvette-Ouest,Congo
CG040200122,-0.773337,15.046663,Oyana,Cuvette-Ouest,Congo
CG040200123,-0.776946,14.930832,Asigi,Cuvette-Ouest,Congo
CG040200124,-0.776946,14.930832,Assingui,Cuvette-Ouest,Congo
CG040200125,-0.758336,14.95917,Okouya,Cuvette-Ouest,Congo
CG040200126,-0.754726,14.957219,Kepouya,Cuvette-Ouest,Congo
CG040200127,-0.761387,14.530002,Mpougui,Cuvette-Ouest,Congo
CG040200128,-0.735556,14.722782,Adzie II,Cuvette-Ouest,Congo
CG040200129,-0.735556,14.722782,Adzie,Cuvette-Ouest,Congo
CG040200130,-0.712504,14.612779,Adzie I,Cuvette-Ouest,Congo
CG040200131,-0.691113,14.569166,Kemouani,Cuvette-Ouest,Congo
CG040200132,-0.680553,14.540552,Kimwami,Cuvette-Ouest,Congo
CG040300001,-0.366668,14.182496,Ossia,Cuvette-Ouest,Congo
CG040300002,-0.366668,14.182496,Mvagui,Cuvette-Ouest,Congo
CG040300003,-0.360834,14.193055,M'Vagui,Cuvette-Ouest,Congo
CG040300004,-0.360834,14.193055,Mwagi,Cuvette-Ouest,Congo
CG040300005,-0.338055,14.185275,Vaka,Cuvette-Ouest,Congo
CG040300006,-0.330837,14.205557,Akaya,Cuvette-Ouest,Congo
CG040300007,-0.29222,14.233614,Obere,Cuvette-Ouest,Congo
CG040300008,-0.273885,14.266666,Kouya,Cuvette-Ouest,Congo
CG040300009,-0.253332,14.277226,Kangala,Cuvette-Ouest,Congo
CG040300010,-0.253608,14.211664,Tchilimbi,Cuvette-Ouest,Congo
CG040300011,-0.241671,14.29306,Tchiniambi-Loeme,Cuvette-Ouest,Congo
CG040300012,-0.24056,14.323056,Tililou,Cuvette-Ouest,Congo
CG040300013,-0.232779,14.305003,Tiliou,Cuvette-Ouest,Congo
CG040300014,-0.231941,14.194996,Dembouanou,Cuvette-Ouest,Congo
CG040300015,-0.218885,14.34333,Bouvandji,Cuvette-Ouest,Congo
CG040300016,-0.218885,14.34333,Tchisakata,Cuvette-Ouest,Congo
CG040300017,-0.197498,14.131387,Tchissoko,Cuvette-Ouest,Congo
CG040300018,-0.189999,14.345281,Tchinianmbiloeme,Cuvette-Ouest,Congo
CG040300019,-0.185558,14.142503,Kelema,Cuvette-Ouest,Congo
CG040300020,-0.185558,14.142503,Keleman,Cuvette-Ouest,Congo
CG040300021,-0.184726,14.153053,Damboanou,Cuvette-Ouest,Congo
CG040300022,-0.166664,14.250002,Demboanou,Cuvette-Ouest,Congo
CG040300023,-0.16361,14.35,Tchivoula,Cuvette-Ouest,Congo
CG040300024,-0.164441,14.079443,Bambala,Cuvette-Ouest,Congo
CG040300025,-0.145002,14.369447,Boubisi,Cuvette-Ouest,Congo
CG040300026,-0.145002,14.369447,Koukouala,Cuvette-Ouest,Congo
CG040300027,-0.131387,14.395552,Patra,Cuvette-Ouest,Congo
CG040300028,-0.131387,14.395552,Kivoula,Cuvette-Ouest,Congo
CG040300029,-0.126391,14.044167,Condji,Cuvette-Ouest,Congo
CG040300030,-0.117503,14.53583,Ngondzi,Cuvette-Ouest,Congo
CG040300031,-0.117503,14.53583,N'Gondzi,Cuvette-Ouest,Congo
CG040300032,-0.109171,14.555277,Siala,Cuvette-Ouest,Congo
CG040300033,-0.106113,14.56083,Yandzila,Cuvette-Ouest,Congo
CG040300034,-0.103333,14.410281,Lombo,Cuvette-Ouest,Congo
CG040300035,-0.103333,14.410281,Vindoulou,Cuvette-Ouest,Congo
CG040300036,-0.100557,14.511387,Lenzi,Cuvette-Ouest,Congo
CG040300037,-0.100557,14.511387,Tchibala,Cuvette-Ouest,Congo
CG040300038,-0.099723,14.021947,Boukoulibouali,Cuvette-Ouest,Congo
CG040300039,-0.099723,14.021947,Koula-Mandi,Cuvette-Ouest,Congo
CG040300040,-0.091945,14.5775,Koula-Mandou,Cuvette-Ouest,Congo
CG040300041,-0.091945,14.5775,Mando,Cuvette-Ouest,Congo
CG040300042,-0.089447,14.019171,Mbaka,Cuvette-Ouest,Congo
CG040300043,-0.089447,14.019171,Nkoula Mando,Cuvette-Ouest,Congo
CG040300044,-0.081947,14.439999,N'Koula Mandou,Cuvette-Ouest,Congo
CG040300045,-0.072223,14.616107,Condi-Baka,Cuvette-Ouest,Congo
CG040300046,-0.066668,13.983337,Condi-Baki,Cuvette-Ouest,Congo
CG040300047,-0.066668,13.983337,Konde-Mbaka,Cuvette-Ouest,Congo
CG040300048,-0.066667,13.950002,Kondi-Mbaka,Cuvette-Ouest,Congo
CG040300049,-0.061393,14.496667,Mengo,Cuvette-Ouest,Congo
CG040300050,-0.061393,14.496667,Mingo,Cuvette-Ouest,Congo
CG040300051,-0.049996,13.950002,Timana,Cuvette-Ouest,Congo
CG040300052,-0.033329,14.458889,Yaya,Cuvette-Ouest,Congo
CG040300053,-0.033329,14.458889,Yaya Gare,Cuvette-Ouest,Congo
CG040300054,-0.029448,14.457775,Binga,Cuvette-Ouest,Congo
CG040300055,-0.028887,14.467219,Hinda,Cuvette-Ouest,Congo
CG040300056,-0.020002,14.338887,Inda,Cuvette-Ouest,Congo
CG040300057,-0.017777,14.331671,Louvouiti,Cuvette-Ouest,Congo
CG040300058,0.023612,14.312782,Louvouti,Cuvette-Ouest,Congo
CG040300059,0.023612,14.312782,Liambou-Nene,Cuvette-Ouest,Congo
CG040300060,0.023612,14.312782,Saint-Paul,Cuvette-Ouest,Congo
CG040300061,0.025837,14.320276,Koufoli,Cuvette-Ouest,Congo
CG040300062,0.025837,14.320276,Tchiendjili,Cuvette-Ouest,Congo
CG040300063,0.043885,14.275274,Lemba,Cuvette-Ouest,Congo
CG040300064,0.069722,14.243607,Vilikagni,Cuvette-Ouest,Congo
CG040300065,0.072504,14.059444,Vilitagni,Cuvette-Ouest,Congo
CG040300066,0.072218,14.233615,Ntombo,Cuvette-Ouest,Congo
CG040300067,0.072218,14.233615,Loubou,Cuvette-Ouest,Congo
CG040300068,0.072218,14.233615,Ngoua Sandji,Cuvette-Ouest,Congo
CG040300069,0.083334,14.136388,Holle,Cuvette-Ouest,Congo
CG040300070,0.083334,14.136388,Tchitondi,Cuvette-Ouest,Congo
CG040300071,0.124724,14.227782,Makola,Cuvette-Ouest,Congo
CG040300072,0.124724,14.227782,Poumba,Cuvette-Ouest,Congo
CG040300073,0.126667,14.174163,Makassou Makola,Cuvette-Ouest,Congo
CG040300074,0.136113,14.226667,Makasou Kola,Cuvette-Ouest,Congo
CG040300075,0.136113,14.226667,Moabi,Cuvette-Ouest,Congo
CG040300076,0.14611,14.226667,Manga Kala,Cuvette-Ouest,Congo
CG040300077,0.153887,14.166946,Loango,Cuvette-Ouest,Congo
CG040300078,0.153887,14.166946,Tchimpila,Cuvette-Ouest,Congo
CG040300079,0.160837,14.205001,Tandou Mboulou,Cuvette-Ouest,Congo
CG040300080,0.181942,14.198333,Tandou Bivenze,Cuvette-Ouest,Congo
CG040300081,0.181942,14.198333,Chiobo,Cuvette-Ouest,Congo
CG040300082,0.197221,14.196669,Tchiobo,Cuvette-Ouest,Congo
CG040300083,0.197221,14.196669,Buco,Cuvette-Ouest,Congo
CG040300084,0.197221,14.196669,M'Bokou,Cuvette-Ouest,Congo
CG040300085,0.201667,14.29361,Mboukou,Cuvette-Ouest,Congo
CG040300086,0.251112,14.087498,Mbuku,Cuvette-Ouest,Congo
CG040400001,-0.783611,14.835833,Tchiendji,Cuvette-Ouest,Congo
CG040400002,-0.783611,14.835833,Tchiyendji,Cuvette-Ouest,Congo
CG040400003,-0.731942,14.829445,Tiendzi,Cuvette-Ouest,Congo
CG040400004,-0.725555,14.827782,Tandou,Cuvette-Ouest,Congo
CG040400005,-0.725555,14.827782,Mkisimbi,Cuvette-Ouest,Congo
CG040400006,-0.726391,14.717777,Tandou Matombe,Cuvette-Ouest,Congo
CG040400007,-0.726391,14.717777,Boutili,Cuvette-Ouest,Congo
CG040400008,-0.690833,14.899719,Tchibamba,Cuvette-Ouest,Congo
CG040400009,-0.680834,14.834165,Tchibanda,Cuvette-Ouest,Congo
CG040400010,-0.668885,14.915833,Bivenzo,Cuvette-Ouest,Congo
CG040400011,-0.675282,14.708891,Diosso,Cuvette-Ouest,Congo
CG040400012,-0.664721,14.8375,Bimbakassa,Cuvette-Ouest,Congo
CG040400013,-0.664721,14.8375,Kondi,Cuvette-Ouest,Congo
CG040400014,-0.633059,14.704445,Matombe,Cuvette-Ouest,Congo
CG040400015,-0.603608,14.85722,Bondi,Cuvette-Ouest,Congo
CG040400016,-0.603608,14.85722,Mesoukound,Cuvette-Ouest,Congo
CG040400017,-0.599446,14.86361,Mbotikandou,Cuvette-Ouest,Congo
CG040400018,-0.599446,14.86361,Vista,Cuvette-Ouest,Congo
CG040400019,-0.584718,14.892774,Asombo,Cuvette-Ouest,Congo
CG040400020,-0.571663,14.989997,Bouili,Cuvette-Ouest,Congo
CG040400021,-0.575552,14.655002,Bouli,Cuvette-Ouest,Congo
CG040400022,-0.575552,14.655002,Bilala,Cuvette-Ouest,Congo
CG040400023,-0.557504,14.988892,Mango-Tandou,Cuvette-Ouest,Congo
CG040400024,-0.551388,14.923888,Mongo-Tandou,Cuvette-Ouest,Congo
CG040400025,-0.562224,14.620277,Mavambou,Cuvette-Ouest,Congo
CG040400026,-0.562224,14.620277,Tchikanou,Cuvette-Ouest,Congo
CG040400027,-0.562224,14.620277,Tsikanou,Cuvette-Ouest,Congo
CG040400028,-0.547226,14.922225,Tchitanga,Cuvette-Ouest,Congo
CG040400029,-0.543336,14.979446,Tchimpassi,Cuvette-Ouest,Congo
CG040400030,-0.540558,14.938887,Pandji,Cuvette-Ouest,Congo
CG040400031,-0.540558,14.938887,Pandji Boueti,Cuvette-Ouest,Congo
CG040400032,-0.527223,14.943893,Mpili,Cuvette-Ouest,Congo
CG040400033,-0.517777,14.940002,M'Pili,Cuvette-Ouest,Congo
CG040400034,-0.512222,14.929999,Ntoupou,Cuvette-Ouest,Congo
CG040400035,-0.487776,14.921112,Toumbou,Cuvette-Ouest,Congo
CG040400036,-0.466668,15.150003,Oueka,Cuvette-Ouest,Congo
CG040400037,-0.441671,14.896389,Weka,Cuvette-Ouest,Congo
CG040400038,-0.441671,14.896389,Tchingoli,Cuvette-Ouest,Congo
CG040400039,-0.427222,14.881947,Matalila,Cuvette-Ouest,Congo
CG040400040,-0.427222,14.881947,Boulamaletchi,Cuvette-Ouest,Congo
CG040400041,-0.398334,14.894448,Nganda Pili,Cuvette-Ouest,Congo
CG040400042,-0.360001,14.907498,Tchissanga,Cuvette-Ouest,Congo
CG040400043,-0.331113,14.904442,Hollemoni,Cuvette-Ouest,Congo
CG040400044,-0.325278,14.914166,Tchisanga,Cuvette-Ouest,Congo
CG040400045,-0.306115,14.915002,Villages Tchissanga,Cuvette-Ouest,Congo
CG040400046,-0.306115,14.915002,Louvoulou,Cuvette-Ouest,Congo
CG040400047,-0.282774,14.92389,Masisa I,Cuvette-Ouest,Congo
CG040400048,-0.282774,14.92389,Niali,Cuvette-Ouest,Congo
CG040400049,-0.272496,14.919163,Sibibamba,Cuvette-Ouest,Congo
CG040400050,-0.241391,14.918615,Ancien Kivoko,Cuvette-Ouest,Congo
CG040400051,-0.241391,14.918615,Kikovo,Cuvette-Ouest,Congo
CG040400052,-0.22611,14.923333,Mindou,Cuvette-Ouest,Congo
CG040400053,-0.21111,14.932222,Sikama-Kamba,Cuvette-Ouest,Congo
CG040400054,-0.21111,14.932222,Mfilou,Cuvette-Ouest,Congo
CG040500001,0.116393,14.887782,Mfilou-Poste,Cuvette-Ouest,Congo
CG040500002,0.121107,14.890002,Bandjila,Cuvette-Ouest,Congo
CG040500003,0.150004,14.885275,Boumogni,Cuvette-Ouest,Congo
CG040500004,0.197495,14.506945,Kibangou,Cuvette-Ouest,Congo
CG040500005,0.230552,14.866393,Kongotali,Cuvette-Ouest,Congo
CG040500006,0.239446,14.876943,Boukagni,Cuvette-Ouest,Congo
CG040500007,0.252781,14.502504,Boukagni-Congotali,Cuvette-Ouest,Congo
CG040500008,0.285559,14.847224,Congotali,Cuvette-Ouest,Congo
CG040500009,0.285559,14.847224,Doumanga,Cuvette-Ouest,Congo
CG040500010,0.311389,14.806944,Magne,Cuvette-Ouest,Congo
CG040500011,0.311389,14.806944,Magne Scirina,Cuvette-Ouest,Congo
CG040500012,0.311389,14.806944,Mandzi,Cuvette-Ouest,Congo
CG040500013,0.321667,14.537225,Manzi,Cuvette-Ouest,Congo
CG040500014,0.336114,14.791388,Lambi,Cuvette-Ouest,Congo
CG040500015,0.336114,14.791388,Goumina,Cuvette-Ouest,Congo
CG040500016,0.348609,14.793607,Malembo,Cuvette-Ouest,Congo
CG040500017,0.364997,14.318052,Mallembo Kinzema,Cuvette-Ouest,Congo
CG040500018,0.373886,14.169726,Kakamoeka,Cuvette-Ouest,Congo
CG040500019,0.362496,14.793059,Loaka,Cuvette-Ouest,Congo
CG040500020,0.36389,14.790282,Kabasibinda,Cuvette-Ouest,Congo
CG040500021,0.36806,14.791665,Zevenge,Cuvette-Ouest,Congo
CG040500022,0.379722,14.793058,Zevengue,Cuvette-Ouest,Congo
CG040500023,0.384164,14.793615,Tchisafou,Cuvette-Ouest,Congo
CG040500024,0.388892,14.66611,Tchissafou,Cuvette-Ouest,Congo
CG040500025,0.388887,14.785832,Nionzi,Cuvette-Ouest,Congo
CG040500026,0.388887,14.785832,Yanga,Cuvette-Ouest,Congo
CG040500027,0.390279,14.740556,Soumba,Cuvette-Ouest,Congo
CG040500028,0.39528,14.687498,Safou,Cuvette-Ouest,Congo
CG040500029,0.40222,14.713614,Loulemba,Cuvette-Ouest,Congo
CG040500030,0.40222,14.713614,Loulimba,Cuvette-Ouest,Congo
CG040500031,0.408884,14.62583,Douvolo,Cuvette-Ouest,Congo
CG040500032,0.408884,14.62583,La Sounda,Cuvette-Ouest,Congo
CG040500033,0.408886,14.652781,Sounda,Cuvette-Ouest,Congo
CG040500034,0.420829,14.271391,Zavanga I,Cuvette-Ouest,Congo
CG040500035,0.412504,14.63,Matandala,Cuvette-Ouest,Congo
CG040500036,0.418613,14.702775,Matandala IV,Cuvette-Ouest,Congo
CG040500037,0.42167,14.680002,Boukagni Dilou,Cuvette-Ouest,Congo
CG040500038,0.430558,14.568053,Louba,Cuvette-Ouest,Congo
CG040500039,0.437777,14.558329,Matandala II,Cuvette-Ouest,Congo
CG040500040,0.437777,14.558329,Malimba,Cuvette-Ouest,Congo
CG040500041,0.441115,14.541389,Yambo,Cuvette-Ouest,Congo
CG040500042,0.446667,14.508335,Yembo,Cuvette-Ouest,Congo
CG040500043,0.448614,14.701111,Mangongo,Cuvette-Ouest,Congo
CG040500044,0.453336,14.701111,Sexo,Cuvette-Ouest,Congo
CG040500045,0.453336,14.701111,Sexse,Cuvette-Ouest,Congo
CG040500046,0.467782,14.489165,Sexso,Cuvette-Ouest,Congo
CG040500047,0.461108,14.703052,Koukebena,Cuvette-Ouest,Congo
CG040500048,0.471943,14.485274,Bongolo Midoumba,Cuvette-Ouest,Congo
CG040500049,0.476114,14.486109,Boungolo,Cuvette-Ouest,Congo
CG040500050,0.481668,14.370837,Boukakata,Cuvette-Ouest,Congo
CG040500051,0.491109,14.101392,Yambo II,Cuvette-Ouest,Congo
CG040500052,0.491109,14.25111,Bitata,Cuvette-Ouest,Congo
CG040500053,0.488055,14.478613,Nkasou,Cuvette-Ouest,Congo
CG040500054,0.49056,14.468054,Midoumba,Cuvette-Ouest,Congo
